SALE TYPE,SOLD DATE,PROPERTY TYPE,ADDRESS,CITY,STATE OR PROVINCE,ZIP OR POSTAL CODE,PRICE,BEDS,BATHS,LOCATION,SQUARE FEET,LOT SIZE,YEAR BUILT,DAYS ON MARKET,$/SQUARE FEET,HOA/MONTH,STATUS,NEXT OPEN HOUSE START TIME,NEXT OPEN HOUSE END TIME,URL (SEE https://www.redfin.com/buy-a-home/comparative-market-analysis FOR INFO ON PRICING),SOURCE,MLS#,FAVORITE,INTERESTED,LATITUDE,LONGITUDE
PAST SALE,August-12-2022,Single Family Residential,153 NE 63rd St,Seattle,WA,98115,798000,3,1.0,Green Lake,960,3060,1907,,831,,Sold,,,https://www.redfin.com/WA/Seattle/153-NE-63rd-St-98115/home/305501,NWMLS,1970840,N,Y,47.6742313,-122.3259301
PAST SALE,August-12-2022,Single Family Residential,2511 W Raye St,Seattle,WA,98199,1230000,3,2.5,Magnolia,2150,3792,1986,,572,,Sold,,,https://www.redfin.com/WA/Seattle/2511-W-Raye-St-98199/home/124355,NWMLS,1954628,N,Y,47.6432857,-122.3895031
PAST SALE,August-15-2022,Single Family Residential,1406 S 83rd St,Tacoma,WA,98408,399950,3,1.5,South Tacoma,1097,5400,1970,,365,,Sold,,,https://www.redfin.com/WA/Tacoma/1406-S-83rd-St-98408/home/2615092,NWMLS,1953864,N,Y,47.1815384,-122.4530523
PAST SALE,August-9-2022,Single Family Residential,5456 18th Ave SW,Seattle,WA,98106,600000,2,1.0,West Seattle,750,5956,1938,,800,,Sold,,,https://www.redfin.com/WA/Seattle/5456-18th-Ave-SW-98106/home/161332,NWMLS,1956153,N,Y,47.5520476,-122.3567065
PAST SALE,August-15-2022,Townhouse,1527 19th Ave,Seattle,WA,98122,1250000,3,2.5,Seattle,1830,1934,2014,,683,,Sold,,,https://www.redfin.com/WA/Seattle/1527-19th-Ave-98122/home/142497,NWMLS,1968071,N,Y,47.6149904,-122.3078128
PAST SALE,August-15-2022,Single Family Residential,5205 36th Ave E,Tacoma,WA,98443,543000,3,2.5,Tacoma,2370,15246,1980,,229,,Sold,,,https://www.redfin.com/WA/Tacoma/5205-36th-Ave-E-98443/home/2598916,NWMLS,1953082,N,Y,47.2097667,-122.3807964
PAST SALE,August-11-2022,Condo/Co-op,11300 1st Ave NE #302,Seattle,WA,98125,427500,2,2.0,Pinehurst,1184,,1979,,361,630,Sold,,,https://www.redfin.com/WA/Seattle/11300-1st-Ave-NE-98125/unit-302/home/68505,NWMLS,1951045,N,Y,47.7109689,-122.3276567
PAST SALE,August-12-2022,Vacant Land,2029 S 8th St,Tacoma,WA,98405,279000,,,Tacoma,,4312,,,,,Sold,,,https://www.redfin.com/WA/Tacoma/2029-S-8th-St-98405/home/2794330,NWMLS,1962500,N,Y,47.2538923,-122.4646174
PAST SALE,August-9-2022,Condo/Co-op,512 10th Ave E #1,Seattle,WA,98102,409000,1,1.0,Capitol Hill,650,,1984,,629,476,Sold,,,https://www.redfin.com/WA/Seattle/512-10th-Ave-E-98102/unit-1/home/21292,NWMLS,1965518,N,Y,47.623667,-122.319577
PAST SALE,August-11-2022,Condo/Co-op,13433 Roosevelt Way N #302,Seattle,WA,98133,279000,2,2.0,Seattle,994,,1968,,281,600,Sold,,,https://www.redfin.com/WA/Seattle/13433-Roosevelt-Way-N-98133/unit-302/home/4334,NWMLS,1956333,N,Y,47.7265413,-122.3305081
PAST SALE,August-12-2022,Condo/Co-op,1406 Harvard Ave #12,Seattle,WA,98122,1250000,2,2.5,Capitol Hill,2095,683,1908,,597,1560,Sold,,,https://www.redfin.com/WA/Seattle/1406-Harvard-Ave-98122/unit-12/home/55052,NWMLS,1959870,N,Y,47.6132931,-122.3218444
PAST SALE,August-12-2022,Single Family Residential,801 S Shirley St,Tacoma,WA,98465,568650,4,2.0,Tacoma,2308,7700,1959,,246,,Sold,,,https://www.redfin.com/WA/Tacoma/801-S-Shirley-St-98465/home/2987818,NWMLS,1943642,N,Y,47.2535598,-122.5100461
PAST SALE,August-15-2022,Single Family Residential,8501 Ashworth Ave N,Seattle,WA,98103,925000,3,2.0,Green Lake,1410,5633,1916,,656,,Sold,,,https://www.redfin.com/WA/Seattle/8501-Ashworth-Ave-N-98103/home/104923,NWMLS,1947120,N,Y,47.6907038,-122.33939
PAST SALE,August-9-2022,Single Family Residential,11043 Marine View Pl SW,Seattle,WA,98146,1100000,3,2.5,Arbor Heights,2180,7600,1966,,505,,Sold,,,https://www.redfin.com/WA/Seattle/11043-Marine-View-Pl-SW-98146/home/158331,NWMLS,1963181,N,Y,47.5033884,-122.3801576
PAST SALE,August-12-2022,Single Family Residential,6789 37th Ave S,Seattle,WA,98118,839000,4,3.0,Seattle,2090,3430,2011,,401,84,Sold,,,https://www.redfin.com/WA/Seattle/6789-37th-Ave-S-98118/home/22415371,NWMLS,1957307,N,Y,47.5403989,-122.286724
PAST SALE,August-12-2022,Single Family Residential,5806 S Warner St,Tacoma,WA,98409,550000,5,3.0,South Tacoma,1708,3850,1908,,322,,Sold,,,https://www.redfin.com/WA/Tacoma/5806-S-Warner-St-98409/home/2719364,NWMLS,1964620,N,Y,47.2040214,-122.4814523
PAST SALE,August-9-2022,Condo/Co-op,4525 S Henderson St #102,Seattle,WA,98118,355000,2,1.0,Rainier Beach,772,,1967,,460,308,Sold,,,https://www.redfin.com/WA/Seattle/4525-S-Henderson-St-98118/unit-102/home/21616927,NWMLS,1927902,N,Y,47.5230071,-122.2753637
PAST SALE,August-12-2022,Condo/Co-op,2000 W Barrett St #305,Seattle,WA,98199,555000,2,2.0,Magnolia,1132,,1993,,490,537,Sold,,,https://www.redfin.com/WA/Seattle/2000-W-Barrett-St-98199/unit-305/home/17732,NWMLS,1966470,N,Y,47.6468849,-122.3823839
PAST SALE,August-12-2022,Single Family Residential,1220 47th Ave E,Fife,WA,98424,410000,2,1.5,Fife,1152,12000,1943,,356,,Sold,,,https://www.redfin.com/WA/Fife/1220-47th-Ave-E-98424/home/2977481,NWMLS,1966973,N,Y,47.2453995,-122.3663497
PAST SALE,August-11-2022,Condo/Co-op,756 Broadway E #205,Seattle,WA,98102,270000,0,1.0,Capitol Hill,390,,1929,,692,371,Sold,,,https://www.redfin.com/WA/Seattle/756-Broadway-E-98102/unit-205/home/145350436,NWMLS,1944637,N,Y,47.6266931,-122.3209124
PAST SALE,August-12-2022,Single Family Residential,2307 64th Ave NE,Tacoma,WA,98422,510000,3,2.0,Ne Tacoma,1352,8276,1994,,377,,Sold,,,https://www.redfin.com/WA/Tacoma/2307-64th-Ave-NE-98422/home/2633423,NWMLS,1972639,N,Y,47.2773155,-122.3618379
PAST SALE,August-9-2022,Townhouse,2317 N 147th St Unit C,Shoreline,WA,98133,779880,2,2.5,Shoreline,1325,,2022,,589,180,Sold,,,https://www.redfin.com/WA/Shoreline/2317-N-147th-St-98133/unit-C/home/177169666,NWMLS,1864028,N,Y,47.7352869,-122.3308755
PAST SALE,August-9-2022,Single Family Residential,12030 Evanston Ave N,Seattle,WA,98133,725000,0,,Broadview,1000,3656,2022,,725,23,Sold,,,https://www.redfin.com/WA/Seattle/12030-Evanston-Ave-N-98133/home/180988548,NWMLS,1982490,N,Y,47.7169433,-122.35128
PAST SALE,August-12-2022,Single Family Residential,3303 6th Ave,Tacoma,WA,98406,757000,4,2.5,Tacoma,2298,7500,1906,,329,,Sold,,,https://www.redfin.com/WA/Tacoma/3303-6th-Ave-98406/home/2771302,NWMLS,1963077,N,Y,47.2555098,-122.4795063
PAST SALE,August-11-2022,Single Family Residential,4702 N Mullen St,Tacoma,WA,98407,730000,3,3.0,North Tacoma,2302,8100,1950,,317,,Sold,,,https://www.redfin.com/WA/Tacoma/4702-N-Mullen-St-98407/home/2989783,NWMLS,1969952,N,Y,47.2920633,-122.501427
PAST SALE,August-10-2022,Single Family Residential,3403 N 19th St,Tacoma,WA,98406,750000,4,2.0,North Tacoma,2813,6600,1925,,267,,Sold,,,https://www.redfin.com/WA/Tacoma/3403-N-19th-St-98406/home/2745029,NWMLS,1954989,N,Y,47.2666824,-122.4813161
PAST SALE,August-9-2022,Single Family Residential,1001 N Huson St,Tacoma,WA,98406,902450,5,3.0,North Tacoma,2540,6000,2014,,355,,Sold,,,https://www.redfin.com/WA/Tacoma/1001-N-Huson-St-98406/home/2964843,NWMLS,1964329,N,Y,47.2592015,-122.5035408
PAST SALE,August-10-2022,Single Family Residential,902 S Orchard St,Tacoma,WA,98465,399999,3,1.0,Central Tacoma,957,5000,1969,,418,,Sold,,,https://www.redfin.com/WA/Tacoma/902-S-Orchard-St-98465/home/2987790,NWMLS,1922880,N,Y,47.2528657,-122.5053976
PAST SALE,August-11-2022,Vacant Land,0 XXX Madrona Dr,Seattle,WA,98122,185000,,,Madrona,,5464,,,,,Sold,,,https://www.redfin.com/WA/Seattle/0-XXX-Madrona-Dr-98122/home/175079657,NWMLS,1906746,N,Y,47.61223,-122.281852
PAST SALE,August-12-2022,Single Family Residential,4010 NE 95th St,Seattle,WA,98115,1005000,2,3.0,Wedgwood,1307,7200,1920,,769,,Sold,,,https://www.redfin.com/WA/Seattle/4010-NE-95th-St-98115/home/113917,NWMLS,1956329,N,Y,47.6976485,-122.2844715
PAST SALE,August-9-2022,Single Family Residential,6671 Homestead Ave,Tacoma,WA,98404,395000,3,1.0,Tacoma,1440,8075,1969,,274,,Sold,,,https://www.redfin.com/WA/Tacoma/6671-Homestead-Ave-98404/home/2732123,NWMLS,1956467,N,Y,47.1956639,-122.4004034
PAST SALE,August-11-2022,Single Family Residential,4537 34th Ave S,Seattle,WA,98118,875000,1,2.0,Columbia City,1437,3000,2006,,609,,Sold,,,https://www.redfin.com/WA/Seattle/4537-34th-Ave-S-98118/home/8185172,NWMLS,1968618,N,Y,47.5617425,-122.2902494
PAST SALE,August-10-2022,Townhouse,4719 A 32nd Ave S,Seattle,WA,98118,689950,2,2.0,Columbia City,1220,772,2022,,566,,Sold,,,https://www.redfin.com/WA/Seattle/4719-32nd-Ave-S-98118/home/179607787,NWMLS,1921759,N,Y,47.5601187,-122.2917408
PAST SALE,August-10-2022,Condo/Co-op,4907 Main St #711,Tacoma,WA,98407,849600,2,2.0,North Tacoma,1268,,2022,,670,386,Sold,,,https://www.redfin.com/WA/Tacoma/4907-Main-St-98407/unit-711/home/178471980,NWMLS,1982140,N,Y,47.2966646,-122.5005707
PAST SALE,August-12-2022,Single Family Residential,4409 N 33rd St,Tacoma,WA,98407,675000,5,3.0,North Tacoma,2422,4920,1917,,279,,Sold,,,https://www.redfin.com/WA/Tacoma/4409-N-33rd-St-98407/home/2822205,NWMLS,1951096,N,Y,47.2779897,-122.4967952
PAST SALE,August-10-2022,Multi-Family (2-4 Unit),4003 80th St E,Tacoma,WA,98445,649200,4,3.25,Summit,3360,36113,1978,,193,,Sold,,,https://www.redfin.com/WA/Tacoma/4003-4005-80th-St-E-98443/home/146428251,NWMLS,1940203,N,Y,47.184739,-122.375771
PAST SALE,August-11-2022,Single Family Residential,7412 Gatewood Rd SW,Seattle,WA,98136,870000,3,2.0,Gatewood,1320,5019,1916,,659,,Sold,,,https://www.redfin.com/WA/Seattle/7412-Gatewood-Rd-SW-98136/home/470217,NWMLS,1951726,N,Y,47.5372064,-122.3859696
PAST SALE,August-12-2022,Condo/Co-op,4248 Chilberg Ave SW #302,Seattle,WA,98116,705000,2,2.0,Beach Drive,928,,1989,,760,628,Sold,,,https://www.redfin.com/WA/Seattle/4248-Chilberg-Ave-SW-98116/unit-302/home/34094,NWMLS,1922002,N,Y,47.5651806,-122.4065243
PAST SALE,August-12-2022,Single Family Residential,4420 39th Ave SW,Seattle,WA,98116,825000,3,2.0,Alaska Junction,1617,3795,1919,,510,,Sold,,,https://www.redfin.com/WA/Seattle/4420-39th-Ave-SW-98116/home/327778,NWMLS,1948382,N,Y,47.5640161,-122.3811288
PAST SALE,August-12-2022,Condo/Co-op,6910 California Ave SW #26,Seattle,WA,98136,510000,2,2.0,Fauntleroy,1128,,1985,,452,471,Sold,,,https://www.redfin.com/WA/Seattle/6910-California-Ave-SW-98136/unit-26/home/63702,NWMLS,1974821,N,Y,47.54189,-122.3867951
PAST SALE,August-10-2022,Townhouse,2252 NW 60th St Unit B,Seattle,WA,98107,775000,3,2.5,Ballard,1270,1187,2005,,610,,Sold,,,https://www.redfin.com/WA/Seattle/2252-NW-60th-St-98107/unit-B/home/2092512,NWMLS,1967056,N,Y,47.6726482,-122.3869731
PAST SALE,August-12-2022,Single Family Residential,2048 NW 60th St,Seattle,WA,98107,800000,2,1.0,Ballard,1050,3000,1900,,762,,Sold,,,https://www.redfin.com/WA/Seattle/2048-NW-60th-St-98107/home/494440,NWMLS,1968274,N,Y,47.6725524,-122.3842643
PAST SALE,August-12-2022,Single Family Residential,3026 62nd Ave SW,Seattle,WA,98116,988000,2,2.0,Alki,1130,3600,1915,,874,,Sold,,,https://www.redfin.com/WA/Seattle/3026-62nd-Ave-SW-98116/home/150083,NWMLS,1964383,N,Y,47.5769225,-122.4116641
PAST SALE,August-12-2022,Single Family Residential,4424 41st Ave SW,Seattle,WA,98116,950000,3,2.5,Alaska Junction,1780,3450,1918,,534,,Sold,,,https://www.redfin.com/WA/Seattle/4424-41st-Ave-SW-98116/home/328229,NWMLS,1975990,N,Y,47.5640086,-122.3838621
PAST SALE,August-12-2022,Condo/Co-op,2000 Alaskan Way #553,Seattle,WA,98121,627000,1,1.0,Downtown,924,,1997,,679,750,Sold,,,https://www.redfin.com/WA/Seattle/2000-Alaskan-Way-98121/unit-553/home/56985,NWMLS,1941086,N,Y,47.6101851,-122.3455905
PAST SALE,August-12-2022,Condo/Co-op,583 Battery St #210,Seattle,WA,98121,665000,1,,Denny Triangle,994,,2016,,669,827,Sold,,,https://www.redfin.com/WA/Seattle/583-Battery-St-98121/unit-210/home/109003169,NWMLS,1941960,N,Y,47.6170456,-122.3436082
PAST SALE,August-12-2022,Condo/Co-op,1707 Boylston Ave #108,Seattle,WA,98122,257000,0,1.0,Capitol Hill,369,,1965,,696,387,Sold,,,https://www.redfin.com/WA/Seattle/1707-Boylston-Ave-98122/unit-108/home/12537696,NWMLS,1962740,N,Y,47.616649,-122.3237235
PAST SALE,August-15-2022,Condo/Co-op,121 Stewart St #2104,Seattle,WA,98101,779000,1,1.0,Downtown,773,,2020,,1008,702,Sold,,,https://www.redfin.com/WA/Seattle/121-Stewart-St-98101/unit-2104/home/175699713,NWMLS,1962389,N,Y,47.6106852,-122.3406126
PAST SALE,August-15-2022,Condo/Co-op,737 Olive Way #2508,Seattle,WA,98101,805000,1,1.5,Downtown,1092,29160,2009,,737,891,Sold,,,https://www.redfin.com/WA/Seattle/737-Olive-Way-98101/unit-2508/home/21883638,NWMLS,1961872,N,Y,47.6138021,-122.3344075
PAST SALE,August-12-2022,Single Family Residential,8227 Tacoma Ave S,Tacoma,WA,98408,374749,3,1.0,Tacoma,965,9800,1974,,388,,Sold,,,https://www.redfin.com/WA/Tacoma/8227-Tacoma-Ave-S-98408/home/2752098,NWMLS,1927731,N,Y,47.1817631,-122.4390739
PAST SALE,August-11-2022,Single Family Residential,320 Lafayette St S,Tacoma,WA,98444,400000,4,1.5,Parkland,1080,6000,1948,,370,,Sold,,,https://www.redfin.com/WA/Tacoma/320-Lafayette-St-S-98444/home/2837742,NWMLS,1968674,N,Y,47.1545195,-122.4366278
PAST SALE,August-10-2022,Single Family Residential,11714 9th Avenue Ct E,Tacoma,WA,98445,459950,4,2.5,Midland,1835,3437,2010,,251,35,Sold,,,https://www.redfin.com/WA/Tacoma/11714-9th-Ave-Ct-E-98445/home/23033588,NWMLS,1956485,N,Y,47.150279,-122.4183523
PAST SALE,August-10-2022,Townhouse,1302 110th St E #36,Tacoma,WA,98445,350000,3,2.5,Tacoma,1656,4911,2001,,211,175,Sold,,,https://www.redfin.com/WA/Tacoma/1302-110th-St-E-98445/unit-36/home/16888405,NWMLS,1971380,N,Y,47.1570501,-122.411848
PAST SALE,August-15-2022,Single Family Residential,8611 16th Ave SW,Seattle,WA,98106,1250000,4,2.5,Highland Park,2320,5120,2006,,539,,Sold,,,https://www.redfin.com/WA/Seattle/8611-16th-Ave-SW-98106/home/474053,NWMLS,1931128,N,Y,47.5261641,-122.3553986
PAST SALE,August-11-2022,Townhouse,2317 N 147th St Unit D,Shoreline,WA,98133,835880,3,3.0,Shoreline,1528,,2022,,547,180,Sold,,,https://www.redfin.com/WA/Shoreline/2317-N-147th-St-98133/unit-D/home/177267846,NWMLS,1865958,N,Y,47.7352869,-122.3308755
PAST SALE,August-11-2022,Single Family Residential,13320 2nd Ave NE,Seattle,WA,98125,825000,3,2.0,Haller Lake,1940,6900,1952,,425,,Sold,,,https://www.redfin.com/WA/Seattle/13320-2nd-Ave-NE-98125/home/103165,NWMLS,1960554,N,Y,47.7256398,-122.3273092
PAST SALE,August-12-2022,Townhouse,2317 N 147th St Unit E,Shoreline,WA,98133,789880,2,2.5,Shoreline,1325,,2022,,596,180,Sold,,,https://www.redfin.com/WA/Shoreline/2317-N-147th-St-98133/unit-E/home/177677522,NWMLS,1873395,N,Y,47.7352869,-122.3308755
PAST SALE,August-12-2022,Single Family Residential,12721 10th Ave NE,Seattle,WA,98125,839000,3,2.0,Jackson Park,1780,8100,1951,,471,,Sold,,,https://www.redfin.com/WA/Seattle/12721-10th-Ave-NE-98125/home/115533,NWMLS,1963803,N,Y,47.7219498,-122.3192948
PAST SALE,August-10-2022,Single Family Residential,2620 S 56th St,Tacoma,WA,98409,410000,4,2.0,Tacoma,2287,5238,1950,,179,,Sold,,,https://www.redfin.com/WA/Tacoma/2620-S-56th-St-98409/home/2971007,NWMLS,1957099,N,Y,47.2062061,-122.4720214
PAST SALE,August-12-2022,Single Family Residential,609 N I St,Tacoma,WA,98403,1160000,4,4.5,North Tacoma,4321,6500,1908,,268,,Sold,,,https://www.redfin.com/WA/Tacoma/609-N-I-St-98403/home/2712608,NWMLS,1926061,N,Y,47.2644984,-122.4577403
PAST SALE,August-12-2022,Single Family Residential,7213 S Prospect St,Tacoma,WA,98409,360000,2,1.0,South Tacoma,1008,6000,1910,,357,,Sold,,,https://www.redfin.com/WA/Tacoma/7213-S-Prospect-St-98409/home/2723089,NWMLS,1961361,N,Y,47.1914137,-122.469478
PAST SALE,August-11-2022,Single Family Residential,4218 E N,Tacoma,WA,98404,558652,4,2.5,Se Tacoma,2119,5467,2012,,264,21,Sold,,,https://www.redfin.com/WA/Tacoma/4218-E-N-St-98404/home/22774122,NWMLS,1962136,N,Y,47.2187153,-122.4110807
PAST SALE,August-10-2022,Single Family Residential,8525 17th Pl NE,Seattle,WA,98115,1100000,4,2.0,Maple Leaf,1790,4824,1930,,615,,Sold,,,https://www.redfin.com/WA/Seattle/8525-17th-Pl-NE-98115/home/106820,NWMLS,1968030,N,Y,47.6910879,-122.3103689
PAST SALE,August-12-2022,Single Family Residential,408 NE 92nd St,Seattle,WA,98115,844950,3,1.5,Maple Leaf,1020,5712,1939,,828,,Sold,,,https://www.redfin.com/WA/Seattle/408-NE-92nd-St-98115/home/109071,NWMLS,1962652,N,Y,47.6960442,-122.3241581
PAST SALE,August-12-2022,Single Family Residential,823 NE 104th St,Seattle,WA,98125,895000,2,3.0,Maple Leaf,1810,8700,1952,,494,,Sold,,,https://www.redfin.com/WA/Seattle/823-NE-104th-St-98125/home/107559,NWMLS,1967768,N,Y,47.703853,-122.3195331
PAST SALE,August-12-2022,Single Family Residential,1130 N 82nd St,Seattle,WA,98103,850000,2,2.0,Green Lake,1800,3720,1951,,472,,Sold,,,https://www.redfin.com/WA/Seattle/1130-N-82nd-St-98103/home/306681,NWMLS,1947279,N,Y,47.6885857,-122.3429992
PAST SALE,August-11-2022,Condo/Co-op,4847 California Ave SW #403,Seattle,WA,98116,435000,1,1.0,Alaska Junction,750,,2003,,580,374,Sold,,,https://www.redfin.com/WA/Seattle/4847-California-Ave-SW-98116/unit-403/home/73748,NWMLS,1964488,N,Y,47.5576301,-122.3871918
PAST SALE,August-11-2022,Single Family Residential,8725 24th Ave NW,Seattle,WA,98117,1010000,4,2.0,North Beach,1800,5100,1952,,561,,Sold,,,https://www.redfin.com/WA/Seattle/8725-24th-Ave-NW-98117/home/166062,NWMLS,1968283,N,Y,47.6930937,-122.3878952
PAST SALE,August-12-2022,Townhouse,2619 NW 57th St Unit A,Seattle,WA,98107,757000,3,3.0,Ballard,1400,1225,2008,,541,,Sold,,,https://www.redfin.com/WA/Seattle/2619-NW-57th-St-98107/unit-A/home/17105652,NWMLS,1973260,N,Y,47.6700458,-122.3909022
PAST SALE,August-12-2022,Condo/Co-op,5000 Fauntleroy Way SW #102,Seattle,WA,98136,372000,1,1.0,Alaska Junction,689,,1992,,540,475,Sold,,,https://www.redfin.com/WA/Seattle/5000-Fauntleroy-Way-SW-98136/unit-102/home/17382480,NWMLS,1955599,N,Y,47.5573597,-122.3811398
PAST SALE,August-12-2022,Single Family Residential,3223 46th Ave SW,Seattle,WA,98116,862500,3,2.0,Admiral,1720,5750,1952,,501,,Sold,,,https://www.redfin.com/WA/Seattle/3223-46th-Ave-SW-98116/home/330759,NWMLS,1963246,N,Y,47.5749534,-122.3910684
PAST SALE,August-15-2022,Single Family Residential,332 NE 57th St,Seattle,WA,98105,974950,3,2.0,Wallingford,1840,4000,1918,,530,,Sold,,,https://www.redfin.com/WA/Seattle/332-NE-57th-St-98105/home/305863,NWMLS,1956009,N,Y,47.6703483,-122.3241118
PAST SALE,August-10-2022,Single Family Residential,552 S Donovan St,Seattle,WA,98108,400000,1,1.0,South Park,620,4500,1950,,645,,Sold,,,https://www.redfin.com/WA/Seattle/552-S-Donovan-St-98108/home/477651,NWMLS,1933638,N,Y,47.5257858,-122.3259995
PAST SALE,August-11-2022,Condo/Co-op,3318 30th Ave SW Unit A301,Seattle,WA,98126,295000,1,1.0,Alki,572,20869,2000,,516,412,Sold,,,https://www.redfin.com/WA/Seattle/3318-30th-Ave-SW-98126/unit-A301/home/3283,NWMLS,1958704,N,Y,47.573079,-122.3712031
PAST SALE,August-11-2022,Townhouse,6549 30th Pl SW,Seattle,WA,98126,748000,4,3.0,High Point,2110,1705,2019,,355,240,Sold,,,https://www.redfin.com/WA/Seattle/6549-30th-Pl-SW-98126/home/18661590,NWMLS,1940046,N,Y,47.5434061,-122.3717527
PAST SALE,August-12-2022,Single Family Residential,7303 29th Ave SW,Seattle,WA,98126,740000,3,1.0,West Seattle,1740,6500,1945,,425,,Sold,,,https://www.redfin.com/WA/Seattle/7303-29th-Ave-SW-98126/home/471812,NWMLS,1945612,N,Y,47.5372123,-122.3701425
PAST SALE,August-11-2022,Condo/Co-op,8760 Greenwood Ave N Unit N502,Seattle,WA,98103,565000,2,2.0,Greenwood,1426,,1998,,396,494,Sold,,,https://www.redfin.com/WA/Seattle/8760-Greenwood-Ave-N-98103/unit-N502/home/69840,NWMLS,1955487,N,Y,47.6940018,-122.3550457
PAST SALE,August-12-2022,Single Family Residential,134 N 78th St,Seattle,WA,98103,994999,4,2.0,Phinney Ridge,2110,3090,1922,,472,,Sold,,,https://www.redfin.com/WA/Seattle/134-N-78th-St-98103/home/497716,NWMLS,1968368,N,Y,47.6856918,-122.3564771
PAST SALE,August-12-2022,Single Family Residential,4810 S 49th St,Tacoma,WA,98409,395000,3,1.0,Tacoma,880,5100,1985,,449,,Sold,,,https://www.redfin.com/WA/Tacoma/4810-S-49th-St-98409/home/2827803,NWMLS,1963097,N,Y,47.2124994,-122.5014885
PAST SALE,August-9-2022,Single Family Residential,610 Fir Park Ln,Fircrest,WA,98466,720000,4,2.0,Fircrest,2428,9408,1960,,297,,Sold,,,https://www.redfin.com/WA/Fircrest/610-Fir-Park-Ln-98466/home/2898260,NWMLS,1961661,N,Y,47.2298814,-122.5133185
PAST SALE,August-12-2022,Single Family Residential,3107 57th Ave NE,Tacoma,WA,98422,478800,3,2.0,Tacoma,1234,5663,1983,,388,,Sold,,,https://www.redfin.com/WA/Tacoma/3107-57th-Ave-NE-98422/home/2937016,NWMLS,1960966,N,Y,47.2850056,-122.371028
PAST SALE,August-11-2022,Single Family Residential,4628 S Chicago St Unit C,Seattle,WA,98118,649000,3,2.5,Rainier Valley,1220,3000,2022,,532,45,Sold,,,https://www.redfin.com/WA/Seattle/4628-S-Chicago-St-98118/unit-C/home/180542322,NWMLS,1961826,N,Y,47.5328484,-122.2740841
PAST SALE,August-10-2022,Townhouse,1623 14th Ave Unit F,Seattle,WA,98122,999999,2,2.0,Capitol Hill,1620,1022,2015,,617,,Sold,,,https://www.redfin.com/WA/Seattle/1623-14th-Ave-98122/unit-F/home/59703652,NWMLS,1964070,N,Y,47.616026,-122.314649
PAST SALE,August-11-2022,Townhouse,3436 13th Ave W Unit C,Seattle,WA,98119,890000,2,2.0,Queen Anne,1130,622,2022,,788,47,Sold,,,https://www.redfin.com/WA/Seattle/3436-13th-Ave-W-98119/unit-C/home/180382507,NWMLS,1964702,N,Y,47.6514498,-122.3732915
PAST SALE,August-11-2022,Single Family Residential,8328 Mary Ave NW,Seattle,WA,98117,899950,3,2.0,Whittier,2340,4130,1950,,385,,Sold,,,https://www.redfin.com/WA/Seattle/8328-Mary-Ave-NW-98117/home/496537,NWMLS,1964332,N,Y,47.6896032,-122.3752082
PAST SALE,August-11-2022,Condo/Co-op,1422 NW 63rd St #403,Seattle,WA,98107,598000,3,2.0,Ballard,1180,10000,1968,,507,611,Sold,,,https://www.redfin.com/WA/Seattle/1422-NW-63rd-St-98107/unit-403/home/12091192,NWMLS,1939757,N,Y,47.6747715,-122.3748394
PAST SALE,August-11-2022,Townhouse,1418 NW 60th St Unit B,Seattle,WA,98107,865000,3,3.0,Ballard,1460,1249,2006,,592,,Sold,,,https://www.redfin.com/WA/Seattle/1418-NW-60th-St-98107/unit-B/home/494560,NWMLS,1952540,N,Y,47.6725399,-122.374515
PAST SALE,August-10-2022,Condo/Co-op,1300 W Boston St #12,Seattle,WA,98119,430000,1,1.0,Queen Anne,768,,1985,,560,551,Sold,,,https://www.redfin.com/WA/Seattle/1300-W-Boston-St-98119/unit-12/home/65830,NWMLS,1961187,N,Y,47.6388386,-122.3742425
PAST SALE,August-12-2022,Single Family Residential,5037 38th Ave NE,Seattle,WA,98105,775000,2,1.0,Bryant,1370,4000,1951,,566,,Sold,,,https://www.redfin.com/WA/Seattle/5037-38th-Ave-NE-98105/home/313397,NWMLS,1969109,N,Y,47.6660029,-122.2871234
PAST SALE,August-10-2022,Townhouse,808 N 145th Ln,Shoreline,WA,98133,599900,2,1.5,Shoreline,1220,1036,2006,,492,120,Sold,,,https://www.redfin.com/WA/Shoreline/808-N-145th-Ln-98133/home/81971,NWMLS,1951813,N,Y,47.7347856,-122.3474785
PAST SALE,August-10-2022,Townhouse,1335 E Denny Way,Seattle,WA,98122,885000,3,2.0,Capitol Hill,1394,604,2022,,635,,Sold,,,https://www.redfin.com/WA/Seattle/1335-E-Denny-Way-98122/home/178984307,NWMLS,1964725,N,Y,47.6186145,-122.3144423
PAST SALE,August-15-2022,Condo/Co-op,217 17th Ave E #3,Seattle,WA,98112,325000,0,1.0,Capitol Hill,372,,1914,,874,263,Sold,,,https://www.redfin.com/WA/Seattle/217-17th-Ave-E-98112/unit-3/home/12318317,NWMLS,1970955,N,Y,47.6202187,-122.3102579
PAST SALE,August-9-2022,Condo/Co-op,1014 E Roy St #29,Seattle,WA,98102,655000,2,1.0,Capitol Hill,1126,,1928,,582,759,Sold,,,https://www.redfin.com/WA/Seattle/1014-E-Roy-St-98102/unit-29/home/62264,NWMLS,1959532,N,Y,47.6255377,-122.3194833
PAST SALE,August-12-2022,Condo/Co-op,1221 Minor Ave #111,Seattle,WA,98101,335000,1,1.0,First Hill,611,25920,1960,,548,443,Sold,,,https://www.redfin.com/WA/Seattle/1221-Minor-Ave-98101/unit-111/home/2063052,NWMLS,1965120,N,Y,47.6113775,-122.3257608
PAST SALE,August-15-2022,Condo/Co-op,1200 Boylston Ave #300,Seattle,WA,98101,360000,2,1.0,First Hill,800,,1960,,450,785,Sold,,,https://www.redfin.com/WA/Seattle/1200-Boylston-Ave-98101/unit-300/home/20784,NWMLS,1933133,N,Y,47.6124195,-122.3230493
PAST SALE,August-15-2022,Condo/Co-op,13730 15th Ave NE Unit G202,Seattle,WA,98125,530000,2,2.5,Jackson Park,1645,,1975,,322,684,Sold,,,https://www.redfin.com/WA/Seattle/13730-15th-Ave-NE-98125/unit-G202/home/19034,NWMLS,1951287,N,Y,47.7297098,-122.311487
PAST SALE,August-9-2022,Single Family Residential,7610 California Ave SW,Seattle,WA,98136,937000,3,2.0,Gatewood,2030,4881,1952,,462,,Sold,,,https://www.redfin.com/WA/Seattle/7610-California-Ave-SW-98136/home/470244,NWMLS,1960028,N,Y,47.5340132,-122.3870141
PAST SALE,August-11-2022,Single Family Residential,7957 9th Ave SW,Seattle,WA,98106,855000,5,2.5,Highland Park,3160,4349,1928,,271,,Sold,,,https://www.redfin.com/WA/Seattle/7957-9th-Ave-SW-98106/home/476183,NWMLS,1962515,N,Y,47.5303307,-122.3470756
PAST SALE,August-12-2022,Townhouse,3231 SW Raymond St,Seattle,WA,98126,600000,3,3.5,High Point,1430,2156,2006,,420,407,Sold,,,https://www.redfin.com/WA/Seattle/3231-SW-Raymond-St-98126/home/8186571,NWMLS,1945060,N,Y,47.5478976,-122.374743
PAST SALE,August-15-2022,Single Family Residential,4618 S Juneau St,Seattle,WA,98118,1125000,3,2.5,Hillman City,1840,3093,2022,,611,,Sold,,,https://www.redfin.com/WA/Seattle/4618-S-Juneau-St-98118/home/492587,NWMLS,1967765,N,Y,47.5499353,-122.2746275
PAST SALE,August-12-2022,Townhouse,1913 24th Ave Unit B,Seattle,WA,98144,595000,3,3.5,Judkins,1190,1050,2003,,500,,Sold,,,https://www.redfin.com/WA/Seattle/1913-24th-Ave-S-98144/unit-B/home/170500,NWMLS,1967364,N,Y,47.5859778,-122.3020536
PAST SALE,August-9-2022,Townhouse,14534 12 Ave NE,Shoreline,WA,98155,515000,3,2.0,Shoreline,1267,,2004,,406,307,Sold,,,https://www.redfin.com/WA/Shoreline/14534-12th-Ave-NE-98155/home/28446019,NWMLS,1955121,N,Y,47.7346702,-122.3154486
PAST SALE,August-9-2022,Single Family Residential,11311 17th Ave NE,Seattle,WA,98125,650000,3,1.5,Victory Heights,1340,5625,1953,,485,,Sold,,,https://www.redfin.com/WA/Seattle/11311-17th-Ave-NE-98125/home/116513,NWMLS,1962060,N,Y,47.7107156,-122.310274
PAST SALE,August-10-2022,Single Family Residential,143 NW 137TH St,Seattle,WA,98177,675000,3,1.0,Broadview,1200,6770,1950,,563,,Sold,,,https://www.redfin.com/WA/Seattle/143-NW-137th-St-98177/home/96729,NWMLS,1969127,N,Y,47.7286215,-122.3602024
PAST SALE,August-12-2022,Townhouse,401 NW 101st St Unit F,Seattle,WA,98177,695000,3,2.5,Greenwood,1470,1484,2006,,473,,Sold,,,https://www.redfin.com/WA/Seattle/401-NW-101st-St-98177/unit-F/home/12304032,NWMLS,1954974,N,Y,47.7023891,-122.3612826
PAST SALE,August-9-2022,Single Family Residential,2825 NW Golden Dr,Seattle,WA,98117,1360000,4,2.0,North Beach,1848,6000,1926,,736,10,Sold,,,https://www.redfin.com/WA/Seattle/2825-NW-Golden-Dr-98117/home/289273,NWMLS,1964460,N,Y,47.6980693,-122.3949955
PAST SALE,August-10-2022,Single Family Residential,536 N 71st St,Seattle,WA,98103,1376000,4,2.0,Phinney Ridge,1930,3300,1925,,713,,Sold,,,https://www.redfin.com/WA/Seattle/536-N-71st-St-98103/home/300249,NWMLS,1969763,N,Y,47.6804999,-122.3510537
PAST SALE,August-10-2022,Condo/Co-op,7814 Greenwood Ave N #301,Seattle,WA,98103,425000,1,1.0,Phinney Ridge,648,,1989,,656,409,Sold,,,https://www.redfin.com/WA/Seattle/7814-Greenwood-Ave-N-98103/unit-301/home/73709,NWMLS,1964167,N,Y,47.685931,-122.3548261
PAST SALE,August-11-2022,Single Family Residential,701 N 63rd St,Seattle,WA,98103,860000,2,1.5,Phinney Ridge,1220,5000,1918,,705,,Sold,,,https://www.redfin.com/WA/Seattle/701-N-63rd-St-98103/home/299575,NWMLS,1951062,N,Y,47.6742673,-122.3497412
PAST SALE,August-11-2022,Single Family Residential,7025 23rd Ave NW,Seattle,WA,98117,1350000,4,3.0,Loyal Heights,2870,4073,1914,,470,,Sold,,,https://www.redfin.com/WA/Seattle/7025-23rd-Ave-NW-98117/home/167054,NWMLS,1953270,N,Y,47.6802233,-122.385643
PAST SALE,August-12-2022,Townhouse,1719 NW 64th St Unit A,Seattle,WA,98107,856000,3,1.5,Ballard,1520,963,2015,,563,,Sold,,,https://www.redfin.com/WA/Seattle/1719-NW-64th-St-98107/unit-A/home/101611216,NWMLS,1969742,N,Y,47.675052,-122.379727
PAST SALE,August-15-2022,Condo/Co-op,3150 W Government Way #405,Seattle,WA,98199,599550,2,2.0,Magnolia,1116,,2007,,537,595,Sold,,,https://www.redfin.com/WA/Seattle/3150-W-Government-Way-98199/unit-405/home/12537328,NWMLS,1964555,N,Y,47.6604505,-122.3986183
PAST SALE,August-15-2022,Townhouse,8036 Mary Ave NW Unit A,Seattle,WA,98117,910000,3,2.5,Crown Hill,1665,1444,2022,,547,,Sold,,,https://www.redfin.com/WA/Seattle/8036-Mary-Ave-NW-98117/unit-A/home/180869614,NWMLS,1977865,N,Y,47.6879737,-122.3751721
PAST SALE,August-10-2022,Condo/Co-op,2901 NE Blakeley St #432,Seattle,WA,98105,545000,1,1.0,Bryant,681,,2004,,800,509,Sold,,,https://www.redfin.com/WA/Seattle/2901-NE-Blakeley-St-98105/unit-432/home/175691384,NWMLS,1939104,N,Y,47.6660526,-122.2975262
PAST SALE,August-10-2022,Townhouse,12049 32 Ave NE Unit C,Seattle,WA,98125,590000,3,2.5,Lake City,1470,1157,2002,,401,,Sold,,,https://www.redfin.com/WA/Seattle/12049-32nd-Ave-NE-98125/unit-C/home/111389,NWMLS,1961944,N,Y,47.716968,-122.2942495
PAST SALE,August-11-2022,Single Family Residential,4729 36th Ave NE,Seattle,WA,98105,1010000,3,2.0,Bryant,1410,3315,1927,,716,,Sold,,,https://www.redfin.com/WA/Seattle/4729-36th-Ave-NE-98105/home/313438,NWMLS,1969606,N,Y,47.6635135,-122.289453
PAST SALE,August-10-2022,Condo/Co-op,601 Belmont Ave E Unit D7,Seattle,WA,98102,610000,1,1.0,Capitol Hill,806,,1970,,757,844,Sold,,,https://www.redfin.com/WA/Seattle/601-Belmont-Ave-E-98102/unit-D7/home/9922,NWMLS,1968026,N,Y,47.6246516,-122.3243936
PAST SALE,August-11-2022,Condo/Co-op,450 S Main St #708,Seattle,WA,98104,360000,0,1.0,International District,353,,2021,,1020,293,Sold,,,https://www.redfin.com/WA/Seattle/450-S-Main-St-98104/unit-708/home/176358937,NWMLS,1938540,N,Y,47.6002447,-122.3280012
PAST SALE,August-10-2022,Condo/Co-op,1425 Western Ave Unit T-401,Seattle,WA,98101,725000,2,2.0,Downtown,992,,1982,,731,1453,Sold,,,https://www.redfin.com/WA/Seattle/1425-Western-Ave-98101/unit-T401/home/44799,NWMLS,1954961,N,Y,47.6080828,-122.3410878
PAST SALE,August-12-2022,Single Family Residential,14340 Courtland Pl N,Seattle,WA,98133,580000,2,1.0,Haller Lake,800,5250,1944,,725,,Sold,,,https://www.redfin.com/WA/Seattle/14340-Courtland-Pl-N-98133/home/103129,NWMLS,1955800,N,Y,47.7335738,-122.3377944
PAST SALE,August-10-2022,Condo/Co-op,12600 57th Ave S Unit E102,Seattle,WA,98178,247000,1,1.0,Skyway,534,,1983,,463,347,Sold,,,https://www.redfin.com/WA/Seattle/12600-57th-Ave-S-98178/unit-E102/home/180386415,NWMLS,1964151,N,Y,47.4898592,-122.2605251
PAST SALE,August-9-2022,Single Family Residential,3570 E K St,Tacoma,WA,98404,360000,3,1.0,Tacoma,1170,5000,1949,,308,,Sold,,,https://www.redfin.com/WA/Tacoma/3570-E-K-St-98404/home/2918538,NWMLS,1960339,N,Y,47.2276432,-122.4165495
PAST SALE,August-12-2022,Single Family Residential,4824 E C St,Tacoma,WA,98404,551000,4,2.5,Se Tacoma,1842,5608,2020,,299,,Sold,,,https://www.redfin.com/WA/Tacoma/4824-E-C-St-98404/home/172098188,NWMLS,1963510,N,Y,47.2127255,-122.4291939
PAST SALE,August-15-2022,Single Family Residential,3711 E J St,Tacoma,WA,98404,373000,3,1.5,McKinley,1651,7500,1907,,226,,Sold,,,https://www.redfin.com/WA/Tacoma/3711-E-J-St-98404/home/2918728,NWMLS,1969115,N,Y,47.2241502,-122.417176
PAST SALE,August-15-2022,Single Family Residential,3202 E M St,Tacoma,WA,98404,449950,3,2.0,McKinley,1928,11375,1965,,233,,Sold,,,https://www.redfin.com/WA/Tacoma/3202-E-M-St-98404/home/2715938,NWMLS,1959907,N,Y,47.2339364,-122.4144311
PAST SALE,August-10-2022,Single Family Residential,2519 NE 91st St,Seattle,WA,98115,1165000,3,1.5,Wedgwood,1610,10780,1946,,724,,Sold,,,https://www.redfin.com/WA/Seattle/2519-NE-91st-St-98115/home/315162,NWMLS,1972481,N,Y,47.6945194,-122.3006928
PAST SALE,August-11-2022,Townhouse,124 24th Ave E Unit D,Seattle,WA,98112,830000,3,1.5,Capitol Hill,1377,1354,2008,,603,,Sold,,,https://www.redfin.com/WA/Seattle/124-24th-Ave-E-98112/unit-D/home/146398,NWMLS,1950800,N,Y,47.619745,-122.3009249
PAST SALE,August-15-2022,Single Family Residential,8620 Corliss Ave N,Seattle,WA,98103,1175000,5,2.0,Green Lake,2700,7642,1950,,435,,Sold,,,https://www.redfin.com/WA/Seattle/8620-Corliss-Ave-N-98103/home/104717,NWMLS,1948974,N,Y,47.6916822,-122.3308082
PAST SALE,August-15-2022,Condo/Co-op,12534 15th Ave NE #37,Seattle,WA,98125,440000,2,2.0,Pinehurst,991,,2002,,444,449,Sold,,,https://www.redfin.com/WA/Seattle/12534-15th-Ave-NE-98125/unit-37/home/39840,NWMLS,1960037,N,Y,47.720504,-122.3122349
PAST SALE,August-11-2022,Single Family Residential,4317 S Dawson St,Seattle,WA,98118,800000,2,1.0,Columbia City,1090,8400,1906,,734,,Sold,,,https://www.redfin.com/WA/Seattle/4317-S-Dawson-St-98118/home/492900,NWMLS,1936359,N,Y,47.5550275,-122.2788451
PAST SALE,August-10-2022,Condo/Co-op,4119 Beach Dr SW #2,Seattle,WA,98116,675000,1,1.0,Beach Drive,721,,1967,,936,380,Sold,,,https://www.redfin.com/WA/Seattle/4119-Beach-Dr-SW-98116/unit-2/home/8188597,NWMLS,1969511,N,Y,47.5668638,-122.4095619
PAST SALE,August-10-2022,Single Family Residential,1412 119th St S,Tacoma,WA,98444,315000,2,1.0,Parkland,768,7500,1951,,410,,Sold,,,https://www.redfin.com/WA/Tacoma/1412-119th-St-S-98444/home/2987445,NWMLS,1966419,N,Y,47.1489579,-122.4534711
PAST SALE,August-15-2022,Single Family Residential,1424 S 95th St,Tacoma,WA,98444,400000,3,2.0,Fern Hill,1362,5083,1991,,294,,Sold,,,https://www.redfin.com/WA/Tacoma/1424-S-95th-St-98444/home/2618347,NWMLS,1974718,N,Y,47.1709257,-122.4543687
PAST SALE,August-9-2022,Single Family Residential,7440 S D St,Tacoma,WA,98408,375000,3,1.0,Se Tacoma,980,5950,1924,,383,,Sold,,,https://www.redfin.com/WA/Tacoma/7440-S-D-St-98408/home/2784425,NWMLS,1958202,N,Y,47.1885902,-122.4369689
PAST SALE,August-10-2022,Single Family Residential,1705 S 88th St,Tacoma,WA,98444,430000,3,2.0,Tacoma,1100,7020,1986,,391,,Sold,,,https://www.redfin.com/WA/Tacoma/1705-S-88th-St-98444/home/2985125,NWMLS,1960334,N,Y,47.1780901,-122.4584343
PAST SALE,August-15-2022,Townhouse,5210 147th Street Ct E #26,Tacoma,WA,98446,380000,2,2.5,Tacoma,1410,4567,2007,,270,200,Sold,,,https://www.redfin.com/WA/Tacoma/5210-147th-St-Ct-E-98446/unit-26/home/3043122,NWMLS,1956605,N,Y,47.1222228,-122.3592694
PAST SALE,August-9-2022,Single Family Residential,5109 77th St E,Tacoma,WA,98443,625000,3,2.5,Summit,1904,20006,1998,,328,10,Sold,,,https://www.redfin.com/WA/Tacoma/5109-77th-St-E-98443/home/2871475,NWMLS,1944882,N,Y,47.1875484,-122.3609184
PAST SALE,August-12-2022,Multi-Family (2-4 Unit),644 N Trafton St,Tacoma,WA,98403,1100000,,,Tacoma,7840,5750,1930,,140,,Sold,,,https://www.redfin.com/WA/Tacoma/644-N-Trafton-St-98403/home/2960348,NWMLS,1984048,N,Y,47.2570497,-122.4675422
PAST SALE,August-11-2022,Condo/Co-op,512 10th Ave E #4,Seattle,WA,98102,595000,2,2.5,Capitol Hill,1200,,1983,,496,805,Sold,,,https://www.redfin.com/WA/Seattle/512-10th-Ave-E-98102/unit-4/home/66549,NWMLS,1967940,N,Y,47.623667,-122.319577
PAST SALE,August-11-2022,Single Family Residential,1415 E 35th St,Tacoma,WA,98404,495000,4,1.5,Indian Addition,1628,14625,1906,,304,,Sold,,,https://www.redfin.com/WA/Tacoma/1415-E-35th-St-98404/home/2845746,NWMLS,1963488,N,Y,47.2318132,-122.4110645
PAST SALE,August-9-2022,Single Family Residential,10310 Waller Rd E,Tacoma,WA,98446,230000,3,1.0,Summit,1024,30538,1915,,225,,Sold,,,https://www.redfin.com/WA/Tacoma/10310-Waller-Rd-E-98446/home/2552735,NWMLS,1959060,N,Y,47.1628087,-122.3890396
PAST SALE,August-10-2022,Condo/Co-op,1002 108th Street Ct E #26,Tacoma,WA,98445,339000,3,2.5,Midland,1352,3341,2007,,251,221,Sold,,,https://www.redfin.com/WA/Tacoma/1002-108th-St-Ct-E-98445/unit-26/home/16888046,NWMLS,1955831,N,Y,47.1581445,-122.4179788
PAST SALE,August-11-2022,Condo/Co-op,1505 N Visscher St Unit P104,Tacoma,WA,98406,285000,2,1.0,Highlands,848,2613,1977,,336,293,Sold,,,https://www.redfin.com/WA/Tacoma/1505-N-Visscher-St-98406/unit-P104/home/2836537,NWMLS,1964545,N,Y,47.2645256,-122.5163971
PAST SALE,August-9-2022,Single Family Residential,5130 S Myrtle St,Seattle,WA,98118,910000,4,3.0,Brighton,2220,8262,1954,,410,,Sold,,,https://www.redfin.com/WA/Seattle/5130-S-Myrtle-St-98118/home/492538,NWMLS,1955353,N,Y,47.5390826,-122.268681
PAST SALE,August-9-2022,Single Family Residential,8116 48th Ave S,Seattle,WA,98118,600000,2,1.0,Rainier Valley,740,5000,1926,,811,,Sold,,,https://www.redfin.com/WA/Seattle/8116-48th-Ave-S-98118/home/175004,NWMLS,1963823,N,Y,47.5297567,-122.2725316
PAST SALE,August-10-2022,Single Family Residential,4717 S Bennett St,Seattle,WA,98118,1100000,3,3.0,Columbia City,1760,6000,1910,,625,,Sold,,,https://www.redfin.com/WA/Seattle/4717-S-Bennett-St-98118/home/493043,NWMLS,1959954,N,Y,47.5543121,-122.2737065
PAST SALE,August-12-2022,Vacant Land,6125 47th Ave S,Seattle,WA,98118,285000,,,Seward Park,,6157,,,,,Sold,,,https://www.redfin.com/WA/Seattle/6125-47th-Ave-S-98118/home/492840,NWMLS,1922552,N,Y,47.5472024,-122.2740983
PAST SALE,August-9-2022,Single Family Residential,2123 N Bennett St,Tacoma,WA,98406,600000,3,2.0,Westgate,2294,7836,1955,,262,,Sold,,,https://www.redfin.com/WA/Tacoma/2123-N-Bennett-St-98406/home/2941105,NWMLS,1922983,N,Y,47.268231,-122.5088882
PAST SALE,August-10-2022,Single Family Residential,2427 5th Ave W,Seattle,WA,98119,1030000,3,1.5,Queen Anne,1200,3600,1905,,858,,Sold,,,https://www.redfin.com/WA/Seattle/2427-5th-Ave-W-98119/home/131605,NWMLS,1956805,N,Y,47.6404948,-122.3638744
PAST SALE,August-10-2022,Townhouse,3639 Dayton Ave N Unit A,Seattle,WA,98103,1230000,3,2.5,Fremont,1840,1138,2016,,668,,Sold,,,https://www.redfin.com/WA/Seattle/3639-Dayton-Ave-N-98103/unit-A/home/109969380,NWMLS,1913263,N,Y,47.6530243,-122.3527988
PAST SALE,August-10-2022,Townhouse,3617 1st Ave NW Unit B,Seattle,WA,98107,909000,3,2.0,Fremont,1530,851,2013,,594,,Sold,,,https://www.redfin.com/WA/Seattle/3617-1st-Ave-NW-98107/unit-B/home/52400467,NWMLS,1946892,N,Y,47.6536023,-122.3580005
PAST SALE,August-11-2022,Townhouse,3421 8th Ave W,Seattle,WA,98119,998000,3,3.5,Queen Anne,1620,1357,1995,,616,,Sold,,,https://www.redfin.com/WA/Seattle/3421-8th-Ave-W-98119/home/129846,NWMLS,1962787,N,Y,47.6514858,-122.3684744
PAST SALE,August-12-2022,Single Family Residential,3411 36th Ave W,Seattle,WA,98199,1140000,3,2.0,Magnolia,1720,6122,1952,,663,,Sold,,,https://www.redfin.com/WA/Seattle/3411-36th-Ave-W-98199/home/127094,NWMLS,1963122,N,Y,47.650885,-122.4038528
PAST SALE,August-15-2022,Single Family Residential,2632 35th Ave W,Seattle,WA,98199,857500,2,1.0,Magnolia,900,6240,1941,,953,,Sold,,,https://www.redfin.com/WA/Seattle/2632-35th-Ave-W-98199/home/128785,NWMLS,1967051,N,Y,47.6441675,-122.4020528
PAST SALE,August-12-2022,Single Family Residential,3230 25th Ave W,Seattle,WA,98199,1100000,4,2.0,Magnolia,3470,7056,1910,,317,,Sold,,,https://www.redfin.com/WA/Seattle/3230-25th-Ave-W-98199/home/123623,NWMLS,1983034,N,Y,47.6494446,-122.3881953
PAST SALE,August-12-2022,Condo/Co-op,2717 Western Ave #102,Seattle,WA,98121,550000,1,1.0,Belltown,1005,,2001,,547,624,Sold,,,https://www.redfin.com/WA/Seattle/2717-Western-Ave-98121/unit-102/home/34913,NWMLS,1922564,N,Y,47.6153113,-122.3524121
PAST SALE,August-15-2022,Condo/Co-op,1512 California Ave SW #101,Seattle,WA,98116,519950,2,2.0,North Admiral,1132,,1986,,459,500,Sold,,,https://www.redfin.com/WA/Seattle/1512-California-Ave-SW-98116/unit-101/home/43199,NWMLS,1962026,N,Y,47.590149826,-122.3861723
PAST SALE,August-10-2022,Townhouse,418 Federal Ave E Unit B,Seattle,WA,98102,780000,2,1.5,Capitol Hill,1015,828,2003,,768,,Sold,,,https://www.redfin.com/WA/Seattle/418-Federal-Ave-E-98102/unit-B/home/143471,NWMLS,1925302,N,Y,47.6225936,-122.3186362
PAST SALE,August-10-2022,Condo/Co-op,412 11th Ave #303,Seattle,WA,98122,450000,1,1.0,First Hill,712,,2002,,632,480,Sold,,,https://www.redfin.com/WA/Seattle/412-11th-Ave-98122/unit-303/home/12091550,NWMLS,1954168,N,Y,47.6058433,-122.3177256
PAST SALE,August-12-2022,Single Family Residential,4515 Stanford Ave NE,Seattle,WA,98105,1250000,3,2.0,Hawthorne Hills,1850,6398,1941,,676,,Sold,,,https://www.redfin.com/WA/Seattle/4515-Stanford-Ave-NE-98105/home/320141,NWMLS,1960937,N,Y,47.6716461,-122.2788615
PAST SALE,August-12-2022,Single Family Residential,607 NE Ravenna Blvd,Seattle,WA,98115,850000,3,1.0,Roosevelt,1720,3088,1924,,494,,Sold,,,https://www.redfin.com/WA/Seattle/607-NE-Ravenna-Blvd-98115/home/304016,NWMLS,1934315,N,Y,47.6752755,-122.3220635
PAST SALE,August-15-2022,Single Family Residential,4531 Purdue Ave NE,Seattle,WA,98105,945000,2,2.0,Hawthorne Hills,2430,6405,1948,,389,,Sold,,,https://www.redfin.com/WA/Seattle/4531-Purdue-Ave-NE-98105/home/320310,NWMLS,1968802,N,Y,47.670431,-122.2785048
PAST SALE,August-11-2022,Condo/Co-op,8005 Sand Point Way NE Unit A52,Seattle,WA,98115,799500,2,2.0,Sand Point,1340,,1974,,597,1268,Sold,,,https://www.redfin.com/WA/Seattle/8005-Sand-Point-Way-NE-98115/unit-A52/home/50337,NWMLS,1955663,N,Y,47.6881555,-122.2659241
PAST SALE,August-10-2022,Single Family Residential,3201 N 20th,Tacoma,WA,98406,553300,4,2.0,North Tacoma,1532,2750,1914,,361,,Sold,,,https://www.redfin.com/WA/Tacoma/3201-N-20th-St-98406/home/2726581,NWMLS,1960320,N,Y,47.2668287,-122.4780376
PAST SALE,August-10-2022,Condo/Co-op,235 Broadway #820,Tacoma,WA,98402,765000,2,2.0,Stadium District,1626,,1961,,470,826,Sold,,,https://www.redfin.com/WA/Tacoma/235-Broadway-98402/unit-820/home/103952302,NWMLS,1947042,N,Y,47.2615455,-122.4432539
PAST SALE,August-15-2022,Condo/Co-op,708 Market St #405,Tacoma,WA,98402,599000,2,2.0,Tacoma,1164,,2007,,515,434,Sold,,,https://www.redfin.com/WA/Tacoma/708-Market-St-98402/unit-405/home/12405408,NWMLS,1960511,N,Y,47.2570728,-122.4427048
PAST SALE,August-15-2022,Condo/Co-op,25 N Broadway St #209,Tacoma,WA,98403,320000,1,1.0,Stadium District,700,,1988,,457,297,Sold,,,https://www.redfin.com/WA/Tacoma/25-N-Broadway-St-98403/unit-209/home/3040653,NWMLS,1939603,N,Y,47.2649907,-122.447628
PAST SALE,August-15-2022,Single Family Residential,1123 N Anderson St,Tacoma,WA,98406,425000,2,1.0,Ups,1842,3750,1906,,231,,Sold,,,https://www.redfin.com/WA/Tacoma/1123-N-Anderson-St-98406/home/2743911,NWMLS,1969354,N,Y,47.2607089,-122.4725085
PAST SALE,August-12-2022,Single Family Residential,4022 N 24th St,Tacoma,WA,98406,555000,5,2.0,Proctor,1856,4500,1906,,299,,Sold,,,https://www.redfin.com/WA/Tacoma/4022-N-24th-St-98406/home/2963551,NWMLS,1964282,N,Y,47.2689679,-122.491518
PAST SALE,August-9-2022,Single Family Residential,3101 S 15th St,Tacoma,WA,98405,475000,3,2.0,Central Tacoma,1238,8640,1992,,384,,Sold,,,https://www.redfin.com/WA/Tacoma/3101-S-15th-St-98405/home/2785646,NWMLS,1937862,N,Y,47.2467719,-122.4766025
PAST SALE,August-10-2022,Single Family Residential,3323 S 12th St,Tacoma,WA,98405,398000,3,2.0,Central Tacoma,1134,5000,1926,,351,,Sold,,,https://www.redfin.com/WA/Tacoma/3323-S-12th-St-98405/home/2772635,NWMLS,1904606,N,Y,47.2502227,-122.4805117
PAST SALE,August-10-2022,Single Family Residential,1421 111th St S,Tacoma,WA,98444,327000,3,1.0,Parkland,1424,9000,1957,,230,,Sold,,,https://www.redfin.com/WA/Tacoma/1421-111th-St-S-98444/home/2935262,NWMLS,1960053,N,Y,47.1564875,-122.4539622
PAST SALE,August-9-2022,Single Family Residential,913 NW 51st St,Seattle,WA,98107,925000,3,3.5,Ballard,1852,1777,2007,,499,,Sold,,,https://www.redfin.com/WA/Seattle/913-NW-51st-St-98107/home/494824,NWMLS,1967733,N,Y,47.6655109,-122.3693809
PAST SALE,August-11-2022,Townhouse,807 NW 97th St Unit A,Seattle,WA,98117,746000,3,3.5,Crown Hill,1460,1245,2006,,511,,Sold,,,https://www.redfin.com/WA/Seattle/807-NW-97th-St-98117/unit-A/home/12303864,NWMLS,1956757,N,Y,47.6998714,-122.3665684
PAST SALE,August-10-2022,Condo/Co-op,4115 Beach Dr SW Unit B,Seattle,WA,98116,1000000,2,2.0,Alki,1937,4550,1990,,516,1318,Sold,,,https://www.redfin.com/WA/Seattle/4115-Beach-Dr-SW-98116/unit-B/home/49666,NWMLS,1968712,N,Y,47.5670124,-122.4095658
PAST SALE,August-10-2022,Single Family Residential,3423 38th Ave SW,Seattle,WA,98126,949000,2,2.0,Belvidere,990,5000,1913,,959,,Sold,,,https://www.redfin.com/WA/Seattle/3423-38th-Ave-SW-98126/home/328771,NWMLS,1966444,N,Y,47.5724599,-122.3806929
PAST SALE,August-10-2022,Townhouse,4846 40th Ave SW Unit B,Seattle,WA,98116,625000,2,2.5,West Seattle,1130,1226,1990,,553,,Sold,,,https://www.redfin.com/WA/Seattle/4846-40th-Ave-SW-98116/unit-B/home/12303859,NWMLS,1966170,N,Y,47.5578683,-122.3823738
PAST SALE,August-12-2022,Single Family Residential,3048 SW Manning St,Seattle,WA,98126,1180000,4,2.5,Belvidere,3020,4120,2008,,391,,Sold,,,https://www.redfin.com/WA/Seattle/3048-SW-Manning-St-98126/home/21470978,NWMLS,1964721,N,Y,47.5714412,-122.3727907
PAST SALE,August-15-2022,Condo/Co-op,303 E Pike St #509,Seattle,WA,98122,579000,1,1.0,Capitol Hill,774,,1998,,748,554,Sold,,,https://www.redfin.com/WA/Seattle/303-E-Pike-St-98122/unit-509/home/23073,NWMLS,1967560,N,Y,47.6139578,-122.3273067
PAST SALE,August-15-2022,Condo/Co-op,1414 12th Ave #510,Seattle,WA,98122,525000,1,1.0,Capitol Hill,725,,2007,,724,387,Sold,,,https://www.redfin.com/WA/Seattle/1414-12th-Ave-98122/unit-510/home/11904598,NWMLS,1967523,N,Y,47.6135951,-122.3163913
PAST SALE,August-9-2022,Single Family Residential,4225 S Bateman St,Seattle,WA,98118,635000,3,2.0,Hillman City,1040,4095,1924,,611,,Sold,,,https://www.redfin.com/WA/Seattle/4225-S-Bateman-St-98118/home/172743,NWMLS,1957216,N,Y,47.5464557,-122.2797331
PAST SALE,August-12-2022,Single Family Residential,5945 34th Ave SW,Seattle,WA,98126,700000,2,2.0,West Seattle,1200,4840,1948,,583,,Sold,,,https://www.redfin.com/WA/Seattle/5945-34th-Ave-SW-98126/home/159894,NWMLS,1964208,N,Y,47.5487974,-122.3753256
PAST SALE,August-12-2022,Single Family Residential,121 156th St E,Tacoma,WA,98445,310000,3,1.0,Spanaway,1118,9240,1969,,277,,Sold,,,https://www.redfin.com/WA/Tacoma/121-156th-St-E-98445/home/2730621,NWMLS,1944423,N,Y,47.1157211,-122.4301935
PAST SALE,August-12-2022,Single Family Residential,17816 25th Ave E,Tacoma,WA,98445,485000,4,2.5,Spanaway,2432,5663,2004,,199,21,Sold,,,https://www.redfin.com/WA/Tacoma/17816-25th-Ave-E-98445/home/3026444,NWMLS,1953721,N,Y,47.0944791,-122.396361
PAST SALE,August-15-2022,Single Family Residential,1207 N Huson St,Tacoma,WA,98406,515000,2,1.0,North Tacoma,1092,5850,1951,,472,,Sold,,,https://www.redfin.com/WA/Tacoma/1207-N-Huson-St-98406/home/2964585,NWMLS,1970133,N,Y,47.2612076,-122.5035238
PAST SALE,August-11-2022,Townhouse,4325 S Junett St,Tacoma,WA,98409,440000,3,3.5,Tacoma,1751,2409,2007,,251,,Sold,,,https://www.redfin.com/WA/Tacoma/4325-S-Junett-St-98409/home/16888581,NWMLS,1961458,N,Y,47.2178137,-122.4745649
PAST SALE,August-15-2022,Single Family Residential,3006 S 64th St,Tacoma,WA,98409,410000,3,1.0,South Tacoma,1152,4028,1928,,356,,Sold,,,https://www.redfin.com/WA/Tacoma/3006-S-64th-St-98409/home/2979730,NWMLS,1963610,N,Y,47.1990767,-122.4750651
PAST SALE,August-15-2022,Single Family Residential,2345 S Wilkeson St,Tacoma,WA,98405,420000,3,1.0,Tacoma,1092,5600,1969,,385,,Sold,,,https://www.redfin.com/WA/Tacoma/2345-S-Wilkeson-St-98405/home/2751393,NWMLS,1953644,N,Y,47.2374435,-122.4588014
PAST SALE,August-10-2022,Townhouse,1705 NW 63rd St Unit A,Seattle,WA,98107,949000,3,2.0,Ballard,1460,1054,2016,,650,,Sold,,,https://www.redfin.com/WA/Seattle/1705-NW-63rd-St-98107/unit-A/home/112863369,NWMLS,1965202,N,Y,47.674246,-122.379301
PAST SALE,August-11-2022,Single Family Residential,3603 37th Ave W,Seattle,WA,98199,990000,2,2.0,Magnolia,1820,6224,1945,,544,,Sold,,,https://www.redfin.com/WA/Seattle/3603-37th-Ave-W-98199/home/127758,NWMLS,1968290,N,Y,47.6524338,-122.4049542
PAST SALE,August-12-2022,Townhouse,8506 18th Ave NW,Seattle,WA,98117,420000,1,1.0,Crown Hill,552,343,2022,,761,21,Sold,,,https://www.redfin.com/WA/Seattle/8506-18th-Ave-NW-98117/home/179739388,NWMLS,1928705,N,Y,47.6908443,-122.3797929
PAST SALE,August-12-2022,Single Family Residential,7037 27th Ave NW,Seattle,WA,98117,1245000,4,1.5,Loyal Heights,1490,5100,1946,,836,,Sold,,,https://www.redfin.com/WA/Seattle/7037-27th-Ave-NW-98117/home/165424,NWMLS,1972524,N,Y,47.6806262,-122.3911401
PAST SALE,August-12-2022,Condo/Co-op,13426 Greenwood Ave N #407,Seattle,WA,98133,399000,1,1.0,Bitter Lake,592,,1985,,674,318,Sold,,,https://www.redfin.com/WA/Seattle/13426-Greenwood-Ave-N-98133/unit-407/home/12093069,NWMLS,1967190,N,Y,47.7269984,-122.3545012
PAST SALE,August-12-2022,Single Family Residential,3118 N Cheyenne St,Tacoma,WA,98407,774950,4,2.0,North Tacoma,2272,5550,1951,,341,,Sold,,,https://www.redfin.com/WA/Tacoma/3118-N-Cheyenne-St-98407/home/2941997,NWMLS,1965674,N,Y,47.2766219,-122.4989573
PAST SALE,August-15-2022,Single Family Residential,4412 N Bristol,Tacoma,WA,98407,485000,4,2.5,Ruston,2078,7200,1968,,233,,Sold,,,https://www.redfin.com/WA/Tacoma/4412-N-Bristol-St-98407/home/2983444,NWMLS,1970362,N,Y,47.2894265,-122.5200534
PAST SALE,August-15-2022,Single Family Residential,3012 N 30th St,Tacoma,WA,98407,875000,3,1.5,Old Town,2746,6000,1927,,319,,Sold,,,https://www.redfin.com/WA/Tacoma/3012-N-30th-St-98407/home/2979524,NWMLS,1965599,N,Y,47.2744424,-122.4753729
PAST SALE,August-15-2022,Single Family Residential,4621 N Cheyenne St,Tacoma,WA,98407,1500000,4,4.5,North Tacoma,3974,22515,1951,,377,,Sold,,,https://www.redfin.com/WA/Tacoma/4621-N-Cheyenne-St-98407/home/2993411,NWMLS,1956583,N,Y,47.2914083,-122.4981911
PAST SALE,August-15-2022,Single Family Residential,6313 N 50th St,Tacoma,WA,98407,530000,3,2.0,North Tacoma,1212,6500,1950,,437,,Sold,,,https://www.redfin.com/WA/Tacoma/6313-N-50th-St-98407/home/2782922,NWMLS,1961165,N,Y,47.2962264,-122.5220146
PAST SALE,August-9-2022,Condo/Co-op,2621 2nd Ave #605,Seattle,WA,98121,550000,1,1.0,Belltown,870,,1980,,632,679,Sold,,,https://www.redfin.com/WA/Seattle/2621-2nd-Ave-98121/unit-605/home/26646,NWMLS,1964330,N,Y,47.6161752,-122.3496072
PAST SALE,August-12-2022,Single Family Residential,5914 26th St NE,Tacoma,WA,98422,543500,4,2.0,Ne Tacoma,1390,6000,1988,,391,,Sold,,,https://www.redfin.com/WA/Tacoma/5914-26th-St-NE-98422/home/2937279,NWMLS,1959075,N,Y,47.2793558,-122.3680381
PAST SALE,August-10-2022,Single Family Residential,2424 84th St E,Tacoma,WA,98445,589999,3,2.0,Summit,1992,24829,1950,,296,,Sold,,,https://www.redfin.com/WA/Tacoma/2424-84th-St-E-98445/home/2626360,NWMLS,1941473,N,Y,47.1806175,-122.3958728
PAST SALE,August-12-2022,Single Family Residential,7614 48th Ave E,Tacoma,WA,98443,525000,4,2.0,Summit,1768,11761,1964,,297,,Sold,,,https://www.redfin.com/WA/Tacoma/7614-48th-Ave-E-98443/home/2791894,NWMLS,1948500,N,Y,47.1875495,-122.365619
PAST SALE,August-9-2022,Single Family Residential,8647 46th Ave SW,Seattle,WA,98136,1300000,5,3.0,West Seattle,2680,4700,1952,,485,,Sold,,,https://www.redfin.com/WA/Seattle/8647-46th-Ave-SW-98136/home/158598,NWMLS,1955524,N,Y,47.5254256,-122.3918684
PAST SALE,August-12-2022,Single Family Residential,9018 12th Ave SW,Seattle,WA,98106,580000,2,1.5,Highland Park,1000,1400,2022,,580,30,Sold,,,https://www.redfin.com/WA/Seattle/9018-12th-Ave-SW-98106/home/179834928,NWMLS,1943700,N,Y,47.5221734,-122.3503369
PAST SALE,August-10-2022,Condo/Co-op,9030 Seward Park Ave S #501,Seattle,WA,98118,364000,2,2.0,Seward Park,1115,,1971,,326,581,Sold,,,https://www.redfin.com/WA/Seattle/9030-Seward-Park-Ave-S-98118/unit-501/home/6386,NWMLS,1964246,N,Y,47.5221216,-122.2637106
PAST SALE,August-12-2022,Townhouse,9218 16th Ave SW Unit B,Seattle,WA,98106,490000,3,1.5,Westwood Village,1150,873,2010,,426,,Sold,,,https://www.redfin.com/WA/Seattle/9218-16th-Ave-SW-98106/unit-B/home/35624961,NWMLS,1971911,N,Y,47.5203907,-122.3547115
PAST SALE,August-15-2022,Single Family Residential,9416 25th Ave SW,Seattle,WA,98106,760000,3,3.0,Westwood,2140,8083,1955,,355,,Sold,,,https://www.redfin.com/WA/Seattle/9416-25th-Ave-SW-98106/home/473727,NWMLS,1945488,N,Y,47.5186581,-122.3642836
PAST SALE,August-11-2022,Single Family Residential,9040 Evanston Ave N,Seattle,WA,98103,775000,2,1.0,Greenwood,1414,7228,1920,,548,,Sold,,,https://www.redfin.com/WA/Seattle/9040-Evanston-Ave-N-98103/home/99810,NWMLS,1967405,N,Y,47.6953676,-122.3509525
PAST SALE,August-10-2022,Single Family Residential,4405 33rd Ave S,Seattle,WA,98108,1255077,3,3.0,Columbia City,2160,1912,2014,,581,159,Sold,,,https://www.redfin.com/WA/Seattle/4405-33rd-Ave-S-98108/home/28581747,NWMLS,1964133,N,Y,47.5641703,-122.2919064
PAST SALE,August-9-2022,Single Family Residential,3158 NE 81st St,Seattle,WA,98115,998000,2,2.0,Wedgwood,1480,6000,1942,,674,,Sold,,,https://www.redfin.com/WA/Seattle/3158-NE-81st-St-98115/home/316115,NWMLS,1953420,N,Y,47.6876167,-122.2925219
PAST SALE,August-10-2022,Single Family Residential,2751 NE 96th St,Seattle,WA,98115,848500,2,2.0,Wedgwood,1140,8348,1952,,744,,Sold,,,https://www.redfin.com/WA/Seattle/2751-NE-96th-St-98115/home/113153,NWMLS,1959291,N,Y,47.6981741,-122.2965717
PAST SALE,August-10-2022,Townhouse,3711 S Dakota St,Seattle,WA,98118,685000,2,2.0,Columbia City,1250,1025,2019,,548,,Sold,,,https://www.redfin.com/WA/Seattle/3711-S-Dakota-St-98118/home/173731353,NWMLS,1957319,N,Y,47.5659866,-122.285958
PAST SALE,August-15-2022,Single Family Residential,7133 S Sunnycrest Rd,Seattle,WA,98178,930000,4,2.0,Lakeridge,2260,6608,1956,,412,,Sold,,,https://www.redfin.com/WA/Seattle/7133-S-Sunnycrest-Rd-98178/home/198882,NWMLS,1960888,N,Y,47.507509,-122.2438205
PAST SALE,August-9-2022,Condo/Co-op,590 1st Ave S #614,Seattle,WA,98104,415000,1,1.0,Pioneer Square,548,,2018,,757,625,Sold,,,https://www.redfin.com/WA/Seattle/590-1st-Ave-S-98104/unit-614/home/145709150,NWMLS,1889286,N,Y,47.5959742,-122.3336151
PAST SALE,August-9-2022,Single Family Residential,13757 Wayne Pl N,Seattle,WA,98133,1300000,3,2.5,Haller Lake,2230,3890,2014,,583,55,Sold,,,https://www.redfin.com/WA/Seattle/13757-Wayne-Pl-N-98133/home/45464398,NWMLS,1964195,N,Y,47.7298933,-122.3353223
PAST SALE,August-10-2022,Condo/Co-op,1420 Terry Ave #1205,Seattle,WA,98101,524500,1,1.0,First Hill,751,,2002,,698,840,Sold,,,https://www.redfin.com/WA/Seattle/1420-Terry-Ave-98101/unit-1205/home/22911,NWMLS,1951380,N,Y,47.612644,-122.329239
PAST SALE,August-9-2022,Townhouse,2317 N 147th St Unit A,Shoreline,WA,98133,1100000,3,3.5,Shoreline,2148,,2022,,512,180,Sold,,,https://www.redfin.com/WA/Shoreline/2317-N-147th-St-98133/unit-A/home/177169641,NWMLS,1863966,N,Y,47.7352869,-122.3308755
PAST SALE,August-10-2022,Condo/Co-op,1408 12th Ave #305,Seattle,WA,98122,711000,1,1.0,Capitol Hill,1028,,2007,,692,579,Sold,,,https://www.redfin.com/WA/Seattle/1408-12th-Ave-98122/unit-305/home/12537647,NWMLS,1972160,N,Y,47.6130989,-122.3165619
PAST SALE,August-11-2022,Single Family Residential,1737 NE Brockman Pl,Seattle,WA,98125,824950,3,2.0,Jackson Park,1910,9150,1961,,432,,Sold,,,https://www.redfin.com/WA/Seattle/1737-NE-Brockman-Pl-98125/home/115422,NWMLS,1963478,N,Y,47.7220213,-122.3100816
PAST SALE,August-15-2022,Single Family Residential,1703 NE 125th St,Seattle,WA,98125,805000,4,2.0,Pinehurst,1600,5042,1927,,503,5,Sold,,,https://www.redfin.com/WA/Seattle/1703-NE-125th-St-98125/home/116461,NWMLS,1953542,N,Y,47.7192155,-122.3097054
PAST SALE,August-12-2022,Single Family Residential,909 N 72nd St,Seattle,WA,98103,1028000,3,2.5,Green Lake,1700,3000,1985,,605,,Sold,,,https://www.redfin.com/WA/Seattle/909-N-72nd-St-98103/home/299973,NWMLS,1966694,N,Y,47.680831,-122.3466373
PAST SALE,August-15-2022,Condo/Co-op,583 Battery St #2701,Seattle,WA,98121,960000,2,2.0,Downtown,1003,,2016,,957,921,Sold,,,https://www.redfin.com/WA/Seattle/583-Battery-St-98121/unit-2701/home/109003491,NWMLS,1941173,N,Y,47.6170456,-122.3436082
PAST SALE,August-15-2022,Single Family Residential,8216 Linden Ave N,Seattle,WA,98103,835000,5,2.0,Greenwood,2480,3120,1928,,337,,Sold,,,https://www.redfin.com/WA/Seattle/8216-Linden-Ave-N-98103/home/300942,NWMLS,1953804,N,Y,47.6889532,-122.3469532
PAST SALE,August-10-2022,Vacant Land,612 E 66th,Fife,WA,98424,20000,,,Se Tacoma,,10000,,,,,Sold,,,https://www.redfin.com/WA/Tacoma/612-66th-Ave-E-98424/home/160969566,NWMLS,1969626,N,Y,47.1968,-122.422866
PAST SALE,August-12-2022,Vacant Land,3220 N 8th St,Tacoma,WA,98406,270000,,,Ups,,5039,,,,,Sold,,,https://www.redfin.com/WA/Tacoma/3220-N-8th-St-98406/home/172097729,NWMLS,1960404,N,Y,47.2568768,-122.4788194
PAST SALE,August-9-2022,Single Family Residential,2726 N Bennett St,Tacoma,WA,98407,500000,3,1.0,North Tacoma,1134,9990,1951,,441,,Sold,,,https://www.redfin.com/WA/Tacoma/2726-N-Bennett-St-98407/home/2990653,NWMLS,1951030,N,Y,47.273054,-122.5095214
PAST SALE,August-9-2022,Vacant Land,6727 Eastside Dr NE,Tacoma,WA,98422,735000,,,Browns Point,,107157,,,,,Sold,,,https://www.redfin.com/WA/Tacoma/6727-E-Side-Dr-NE-98422/home/2629811,NWMLS,1981681,N,Y,47.301842,-122.432783
PAST SALE,August-11-2022,Townhouse,4348 28th Ave S,Seattle,WA,98108,615000,2,2.5,Columbia City,1240,1546,2007,,496,303,Sold,,,https://www.redfin.com/WA/Seattle/4348-28th-Ave-S-98108/home/8187455,NWMLS,1962608,N,Y,47.5633204,-122.2979792
PAST SALE,August-9-2022,Townhouse,2317 N 147th St Unit B,Shoreline,WA,98133,830000,3,3.0,Shoreline,1528,,2022,,543,180,Sold,,,https://www.redfin.com/WA/Shoreline/2317-N-147th-St-98133/unit-B/home/177268023,NWMLS,1865970,N,Y,47.7352869,-122.3308755
