SALE TYPE,SOLD DATE,PROPERTY TYPE,ADDRESS,CITY,STATE OR PROVINCE,ZIP OR POSTAL CODE,PRICE,BEDS,BATHS,LOCATION,SQUARE FEET,LOT SIZE,YEAR BUILT,DAYS ON MARKET,$/SQUARE FEET,HOA/MONTH,STATUS,NEXT OPEN HOUSE START TIME,NEXT OPEN HOUSE END TIME,URL (SEE https://www.redfin.com/buy-a-home/comparative-market-analysis FOR INFO ON PRICING),SOURCE,MLS#,FAVORITE,INTERESTED,LATITUDE,LONGITUDE
PAST SALE,May-18-2022,Single Family Residential,3213 39th Ave SW,Seattle,WA,98116,860000,2,1.0,Belvidere,830,5392,1949,,1036,,Sold,,,https://www.redfin.com/WA/Seattle/3213-39th-Ave-SW-98116/home/327579,NWMLS,1921961,N,Y,47.5751994,-122.3816811
PAST SALE,May-20-2022,Single Family Residential,4606 S Mead St,Seattle,WA,98118,950000,4,2.5,Hillman City,1600,3090,1994,,594,,Sold,,,https://www.redfin.com/WA/Seattle/4606-S-Mead-St-98118/home/492673,NWMLS,1922984,N,Y,47.5505661,-122.2749656
PAST SALE,May-17-2022,Single Family Residential,1854 E 34th St,Tacoma,WA,98404,385000,2,1.0,Tacoma,668,5176,1943,,576,,Sold,,,https://www.redfin.com/WA/Tacoma/1854-E-34th-St-98404/home/45423051,NWMLS,1903370,N,Y,47.233201,-122.4032864
PAST SALE,May-23-2022,Single Family Residential,13535 39th Ave NE,Seattle,WA,98125,770000,3,2.0,Cedar Park,920,8148,1918,,837,,Sold,,,https://www.redfin.com/WA/Seattle/13535-39th-Ave-NE-98125/home/111103,NWMLS,1927939,N,Y,47.7274116,-122.2871956
PAST SALE,May-20-2022,Single Family Residential,8712 19th Ave NW,Seattle,WA,98117,911000,2,2.0,Crown Hill,1460,4000,1940,,624,,Sold,,,https://www.redfin.com/WA/Seattle/8712-19th-Ave-NW-98117/home/100538,NWMLS,1912181,N,Y,47.6928757,-122.3808524
PAST SALE,May-20-2022,Single Family Residential,5213 64th St W,University Place,WA,98467,700000,4,2.5,University Place,2114,6495,2020,,331,,Sold,,,https://www.redfin.com/WA/University-Place/5213-64th-St-W-98467/home/167213621,NWMLS,1915702,N,Y,47.1994717,-122.5064926
PAST SALE,May-23-2022,Single Family Residential,9247 Tacoma Ave S,Tacoma,WA,98444,435000,3,1.0,Tacoma,1370,9836,1945,,318,,Sold,,,https://www.redfin.com/WA/Tacoma/9247-Tacoma-Ave-S-98444/home/2935663,NWMLS,1905915,N,Y,47.1720942,-122.4390242
PAST SALE,May-23-2022,Single Family Residential,2131 N Highland St,Tacoma,WA,98406,612270,3,1.5,North Tacoma,1454,8250,1954,,421,,Sold,,,https://www.redfin.com/WA/Tacoma/2131-N-Highland-St-98406/home/2990082,NWMLS,1916979,N,Y,47.2685512,-122.5128391
PAST SALE,May-19-2022,Single Family Residential,7401 E G St,Tacoma,WA,98404,490000,3,2.0,Tacoma,1703,7200,1995,,288,,Sold,,,https://www.redfin.com/WA/Tacoma/7401-E-G-St-98404/home/2821425,NWMLS,1908008,N,Y,47.1901525,-122.4219766
PAST SALE,May-18-2022,Condo/Co-op,3100 Fairview Ave E #101,Seattle,WA,98102,470000,1,1.0,Eastlake,685,,1991,,686,480,Sold,,,https://www.redfin.com/WA/Seattle/3100-Fairview-Ave-E-98102/unit-101/home/55716,NWMLS,1915165,N,Y,47.6492737,-122.3240014
PAST SALE,May-23-2022,Single Family Residential,2411 N Junett St,Tacoma,WA,98406,785000,3,2.0,North Tacoma,1832,3000,1921,,428,,Sold,,,https://www.redfin.com/WA/Tacoma/2411-N-Junett-St-98406/home/2974177,NWMLS,1920104,N,Y,47.2697188,-122.4744289
PAST SALE,May-23-2022,Condo/Co-op,5642 California Ave SW #5,Seattle,WA,98136,460000,2,1.0,Seaview,800,,1980,,575,474,Sold,,,https://www.redfin.com/WA/Seattle/5642-California-Ave-SW-98136/unit-5/home/62637,NWMLS,1917717,N,Y,47.550851,-122.3866756
PAST SALE,May-23-2022,Townhouse,3250 21st Ave W Unit C,Seattle,WA,98199,820000,3,2.5,Seattle,1390,1241,2015,,590,,Sold,,,https://www.redfin.com/WA/Seattle/3250-21st-Ave-W-98199/unit-C/home/101611541,NWMLS,1918554,N,Y,47.6500323,-122.3830878
PAST SALE,May-19-2022,Condo/Co-op,4547 8th Ave NE #301,Seattle,WA,98105,410000,1,1.0,University District,598,,2009,,686,520,Sold,,,https://www.redfin.com/WA/Seattle/4547-8th-Ave-NE-98105/unit-301/home/21882069,NWMLS,1914798,N,Y,47.6628066,-122.3199124
PAST SALE,May-20-2022,Condo/Co-op,914 6th Ave N #401,Seattle,WA,98109,575000,2,1.5,Queen Anne,975,,1968,,590,530,Sold,,,https://www.redfin.com/WA/Seattle/914-6th-Ave-N-98109/unit-401/home/169209122,NWMLS,1923875,N,Y,47.6276669,-122.3446199
PAST SALE,May-18-2022,Single Family Residential,5414 A St,Tacoma,WA,98408,600000,3,3.0,Tacoma,3420,8276,1954,,175,,Sold,,,https://www.redfin.com/WA/Tacoma/5414-A-St-98408/home/2595449,NWMLS,1926311,N,Y,47.2077195,-122.4317143
PAST SALE,May-19-2022,Townhouse,663 W Emerson St,Seattle,WA,98119,800000,2,2.5,Queen Anne,1290,1398,2001,,620,,Sold,,,https://www.redfin.com/WA/Seattle/663-W-Emerson-St-98119/home/130944,NWMLS,1926487,N,Y,47.651322,-122.36761
PAST SALE,May-20-2022,Single Family Residential,1806 S 39th St,Tacoma,WA,98418,381000,3,1.0,Tacoma,888,6000,1979,,429,,Sold,,,https://www.redfin.com/WA/Tacoma/1806-S-39th-St-98418/home/2978665,NWMLS,1915409,N,Y,47.2216689,-122.4612053
PAST SALE,May-18-2022,Condo/Co-op,524 6th Ave W #109,Seattle,WA,98119,424000,2,1.0,Queen Anne,680,,1997,,624,390,Sold,,,https://www.redfin.com/WA/Seattle/524-6th-Ave-W-98119/unit-109/home/69631,NWMLS,1907800,N,Y,47.6243642,-122.3644178
PAST SALE,May-17-2022,Condo/Co-op,655 Crockett St Unit B403,Seattle,WA,98109,525000,1,1.0,Westlake,673,,2004,,780,440,Sold,,,https://www.redfin.com/WA/Seattle/655-Crockett-St-98109/unit-B403/home/2064333,NWMLS,1917378,N,Y,47.6372788,-122.3439708
PAST SALE,May-19-2022,Single Family Residential,309 SW 108th St,Seattle,WA,98146,555000,3,1.0,Seattle,910,6000,1956,,610,,Sold,,,https://www.redfin.com/WA/Seattle/309-SW-108th-St-98146/home/183305,NWMLS,1910331,N,Y,47.5064932,-122.3382316
PAST SALE,May-17-2022,Single Family Residential,7900 S 120th St,Seattle,WA,98178,550000,4,1.0,Seattle,2210,15239,1949,,249,,Sold,,,https://www.redfin.com/WA/Seattle/7900-S-120th-St-98178/home/198839,NWMLS,1922183,N,Y,47.495674,-122.2342948
PAST SALE,May-17-2022,Condo/Co-op,3435 California Ave SW #204,Seattle,WA,98116,485000,2,2.0,North Admiral,905,,1993,,536,632,Sold,,,https://www.redfin.com/WA/Seattle/3435-California-Ave-SW-98116/unit-204/home/15022,NWMLS,1916743,N,Y,47.5726705,-122.3871404
PAST SALE,May-20-2022,Single Family Residential,4219 N 18th St,Tacoma,WA,98406,700000,3,1.0,Proctor,1453,6912,1947,,482,,Sold,,,https://www.redfin.com/WA/Tacoma/4219-N-18th-St-98406/home/2963960,NWMLS,1922841,N,Y,47.265696,-122.4942146
PAST SALE,May-23-2022,Condo/Co-op,720 Queen Anne Ave N #411,Seattle,WA,98109,420000,1,1.0,Queen Anne,572,,1997,,734,419,Sold,,,https://www.redfin.com/WA/Seattle/720-Queen-Anne-Ave-N-98109/unit-411/home/11388,NWMLS,1916819,N,Y,47.6260335,-122.3564159
PAST SALE,May-23-2022,Condo/Co-op,275 W Roy St #209,Seattle,WA,98119,420000,1,1.0,Queen Anne,585,,1982,,718,391,Sold,,,https://www.redfin.com/WA/Seattle/275-W-Roy-St-98119/unit-209/home/58890,NWMLS,1901914,N,Y,47.6255231,-122.3599262
PAST SALE,May-19-2022,Single Family Residential,1805 Browns Point Blvd NE,Tacoma,WA,98422,642000,4,3.5,Browns Point,3364,9450,1995,,191,,Sold,,,https://www.redfin.com/WA/Tacoma/1805-Browns-Point-Blvd-98422/home/2937839,NWMLS,1916752,N,Y,47.2897534,-122.4021608
PAST SALE,May-23-2022,Single Family Residential,1914 64th Ave NE,Tacoma,WA,98422,660000,3,2.5,Ne Tacoma,1884,9620,1985,,350,,Sold,,,https://www.redfin.com/WA/Tacoma/1914-64th-Ave-NE-98422/home/2728966,NWMLS,1916092,N,Y,47.2742649,-122.3627422
PAST SALE,May-18-2022,Townhouse,9242 Interlake Ave N Unit D,Seattle,WA,98103,615000,2,1.5,Licton Springs,904,998,2003,,680,,Sold,,,https://www.redfin.com/WA/Seattle/9242-Interlake-Ave-N-98103/unit-D/home/104968,NWMLS,1922800,N,Y,47.6973057,-122.3405836
PAST SALE,May-18-2022,Townhouse,8836 Midvale Ave N Unit A,Seattle,WA,98103,755000,3,2.0,Green Lake,1330,1366,2006,,568,,Sold,,,https://www.redfin.com/WA/Seattle/8836-Midvale-Ave-N-98103/unit-A/home/2119528,NWMLS,1889123,N,Y,47.6935184,-122.3419902
PAST SALE,May-19-2022,Single Family Residential,3015 NE 85th St,Seattle,WA,98115,975000,3,2.0,Wedgwood,1632,4462,1942,,597,1,Sold,,,https://www.redfin.com/WA/Seattle/3015-NE-85th-St-98115/home/315775,NWMLS,1916372,N,Y,47.6900253,-122.2953571
PAST SALE,May-19-2022,Single Family Residential,3550 NE 87th St,Seattle,WA,98115,950000,2,2.0,Wedgwood,1860,6120,1941,,511,,Sold,,,https://www.redfin.com/WA/Seattle/3550-NE-87th-St-98115/home/314816,NWMLS,1918255,N,Y,47.691833,-122.288521
PAST SALE,May-19-2022,Townhouse,2138 N 113th St Unit B,Seattle,WA,98133,800000,3,2.5,Northgate,1650,2082,2007,,485,,Sold,,,https://www.redfin.com/WA/Seattle/2138-N-113th-St-98133/unit-B/home/18658995,NWMLS,1915138,N,Y,47.7108236,-122.3321219
PAST SALE,May-18-2022,Single Family Residential,6604 52nd Ave Ct W,University Place,WA,98467,415000,4,2.0,Manitou,1782,5858,1997,,233,,Sold,,,https://www.redfin.com/WA/Tacoma/6604-52nd-Ave-Ct-W-98467/home/26841628,NWMLS,1921871,N,Y,47.19698,-122.506563
PAST SALE,May-20-2022,Single Family Residential,5009 81st St SW,Lakewood,WA,98499,600000,3,2.0,Creekside,1881,8327,1998,,319,32,Sold,,,https://www.redfin.com/WA/Lakewood/5009-81st-St-SW-98499/home/2813193,NWMLS,1902456,N,Y,47.1834475,-122.5043459
PAST SALE,May-18-2022,Condo/Co-op,2510 6th Ave #3209,Seattle,WA,98121,975000,1,1.0,Denny Triangle,765,,2021,,1275,708,Sold,,,https://www.redfin.com/WA/Seattle/2510-6th-Ave-98121/unit-3209/home/179297253,NWMLS,1925749,N,Y,47.6182832,-122.344644
PAST SALE,May-20-2022,Condo/Co-op,2015 Terry Ave #404,Seattle,WA,98121,510000,1,1.0,Denny Triangle,774,,2004,,659,560,Sold,,,https://www.redfin.com/WA/Seattle/2015-Terry-Ave-98121/unit-404/home/12093254,NWMLS,1891826,N,Y,47.6172912,-122.3358101
PAST SALE,May-20-2022,Single Family Residential,3702 48th Ave NE,Tacoma,WA,98422,650000,3,2.0,Ne Tacoma,1500,6619,1997,,433,,Sold,,,https://www.redfin.com/WA/Tacoma/3702-48th-Ave-NE-98422/home/2870483,NWMLS,1917187,N,Y,47.2902331,-122.3843783
PAST SALE,May-20-2022,Single Family Residential,3619 Larchmont Ave NE,Tacoma,WA,98422,685000,3,2.5,Browns Point,2300,9020,1988,,298,,Sold,,,https://www.redfin.com/WA/Tacoma/3619-Larchmont-Ave-NE-98422/home/2937942,NWMLS,1919776,N,Y,47.2900411,-122.3998581
PAST SALE,May-20-2022,Condo/Co-op,4907 Main St #520,Tacoma,WA,98407,730678,2,2.0,North Tacoma,1337,,2022,,547,465,Sold,,,https://www.redfin.com/WA/Tacoma/4907-Main-St-98407/unit-520/home/175100675,NWMLS,1768917,N,Y,47.2966646,-122.5005707
PAST SALE,May-20-2022,Condo/Co-op,4907 Main St #502,Tacoma,WA,98407,908179,2,2.0,North Tacoma,1520,,2022,,597,475,Sold,,,https://www.redfin.com/WA/Tacoma/4907-Main-St-98407/unit-502/home/178471942,NWMLS,1939030,N,Y,47.2966646,-122.5005707
PAST SALE,May-20-2022,Single Family Residential,6325 N Hale St,Tacoma,WA,98407,830001,4,3.0,North Tacoma,1988,5775,1966,,418,,Sold,,,https://www.redfin.com/WA/Tacoma/6325-N-Hale-St-98407/home/2798190,NWMLS,1892496,N,Y,47.2942146,-122.5224131
PAST SALE,May-18-2022,Single Family Residential,243 E 61ST St,Tacoma,WA,98404,520000,5,2.0,Tacoma,1730,6000,1955,,301,,Sold,,,https://www.redfin.com/WA/Tacoma/243-E-61st-St-98404/home/2735377,NWMLS,1912779,N,Y,47.202017,-122.4265062
PAST SALE,May-18-2022,Single Family Residential,7422 A St,Tacoma,WA,98408,465000,3,1.5,Se Tacoma,1508,9000,1959,,308,,Sold,,,https://www.redfin.com/WA/Tacoma/7422-A-St-98408/home/2972133,NWMLS,1914343,N,Y,47.1892411,-122.4316957
PAST SALE,May-20-2022,Single Family Residential,306 122nd St S,Tacoma,WA,98444,310000,2,1.0,Parkland,1268,7500,1953,,244,,Sold,,,https://www.redfin.com/WA/Tacoma/306-122nd-St-S-98444/home/2945829,NWMLS,1908155,N,Y,47.1452359,-122.4360158
PAST SALE,May-20-2022,Townhouse,10421 12th Ave Ct S,Tacoma,WA,98444,330000,4,1.0,Tacoma,1244,3250,1969,,265,120,Sold,,,https://www.redfin.com/WA/Tacoma/10421-12th-Ave-Ct-S-98444/home/2988477,NWMLS,1919934,N,Y,47.161955,-122.450485
PAST SALE,May-18-2022,Single Family Residential,10419 Patterson St S,Tacoma,WA,98444,540000,4,2.5,South Tacoma,1762,5500,2014,,306,,Sold,,,https://www.redfin.com/WA/Tacoma/10419-Patterson-St-S-98444/home/69363234,NWMLS,1910647,N,Y,47.1620613,-122.4363769
PAST SALE,May-20-2022,Single Family Residential,8639 S D St,Tacoma,WA,98444,470000,2,2.5,South Tacoma,2058,9148,1955,,228,,Sold,,,https://www.redfin.com/WA/Tacoma/8639-S-D-St-98444/home/2620530,NWMLS,1923111,N,Y,47.1776892,-122.4363801
PAST SALE,May-20-2022,Single Family Residential,526 127th St S,Tacoma,WA,98444,420000,3,1.0,Parkland,1032,5000,1945,,407,,Sold,,,https://www.redfin.com/WA/Tacoma/526-127th-St-S-98444/home/2767303,NWMLS,1917319,N,Y,47.1417493,-122.4396511
PAST SALE,May-17-2022,Single Family Residential,35929 18th Ct SW,Federal Way,WA,98023,570800,3,2.5,Federal Way,1520,6812,1992,,376,,Sold,,,https://www.redfin.com/WA/Federal-Way/35929-18th-Ct-SW-98023/home/361236,NWMLS,1908654,N,Y,47.2795503,-122.3573207
PAST SALE,May-18-2022,Townhouse,602 SW 100th St,Seattle,WA,98106,629800,3,2.5,White Center,1700,2300,2020,,370,306,Sold,,,https://www.redfin.com/WA/Seattle/602-SW-100th-St-98106/home/145709119,NWMLS,1612746,N,Y,47.513943,-122.342344
PAST SALE,May-19-2022,Single Family Residential,9619 13th Ave SW,Seattle,WA,98106,549000,3,2.0,White Center,1230,10228,1941,,446,,Sold,,,https://www.redfin.com/WA/Seattle/9619-13th-Ave-SW-98106/home/182156,NWMLS,1917318,N,Y,47.5167537,-122.3521656
PAST SALE,May-20-2022,Moorage,9468 Rainier Ave S Unit M-13,Seattle,WA,98118,95000,0,,Rainier Beach,30,30,1967,,3167,80,Sold,,,https://www.redfin.com/WA/Seattle/9468-Rainier-Ave-S-98118/unit-M-13/home/7522,NWMLS,1887809,N,Y,47.520975,-122.261254
PAST SALE,May-20-2022,Single Family Residential,7308 46th Ave S,Seattle,WA,98118,875561,5,2.0,Seattle,2080,4519,1953,,421,,Sold,,,https://www.redfin.com/WA/Seattle/7308-46th-Ave-S-98118/home/174941,NWMLS,1922419,N,Y,47.5366278,-122.2751133
PAST SALE,May-18-2022,Single Family Residential,10035 61st Ave S Unit B,Seattle,WA,98178,780000,5,3.0,Upper Rainier Beach,2370,5008,2000,,329,,Sold,,,https://www.redfin.com/WA/Seattle/10035-61st-Ave-S-98178/unit-B/home/176183,NWMLS,1910832,N,Y,47.5106155,-122.2578347
PAST SALE,May-17-2022,Townhouse,3420 SW Graham St #1004,Seattle,WA,98126,710000,2,2.5,High Point,1377,113080,2018,,516,462,Sold,,,https://www.redfin.com/WA/Seattle/3420-SW-Graham-St-98126/unit-1004/home/144929580,NWMLS,1919895,N,Y,47.546545,-122.3755525
PAST SALE,May-18-2022,Townhouse,2801 SW Nevada St Unit B,Seattle,WA,98126,903600,3,2.0,West Seattle,1491,1250,2017,,606,,Sold,,,https://www.redfin.com/WA/Seattle/2801-SW-Nevada-St-98126/unit-B/home/175876712,NWMLS,1920296,N,Y,47.5652581,-122.3683808
PAST SALE,May-19-2022,Condo/Co-op,2990 SW Raymond St #302,Seattle,WA,98126,510500,2,2.0,High Point,1081,173136,2007,,472,498,Sold,,,https://www.redfin.com/WA/Seattle/2990-SW-Raymond-St-98126/unit-302/home/146978700,NWMLS,1915005,N,Y,47.5485831,-122.3710037
PAST SALE,May-19-2022,Townhouse,4710 37th Ave SW Unit A,Seattle,WA,98126,767000,3,2.5,Alaska Junction,1422,889,2011,,539,,Sold,,,https://www.redfin.com/WA/Seattle/4710-37th-Ave-SW-98126/unit-A/home/40080044,NWMLS,1920402,N,Y,47.5606946,-122.3782337
PAST SALE,May-18-2022,Single Family Residential,4725 Delridge Way SW,Seattle,WA,98106,705000,2,1.0,Delridge,1750,4960,1958,,403,,Sold,,,https://www.redfin.com/WA/Seattle/4725-Delridge-Way-SW-98106/home/159422,NWMLS,1910650,N,Y,47.5602926,-122.36326
PAST SALE,May-19-2022,Condo/Co-op,3318 30th Ave SW Unit B 602,Seattle,WA,98126,325000,1,1.0,Alki,688,,2000,,472,495,Sold,,,https://www.redfin.com/WA/Seattle/3318-30th-Ave-SW-98126/unit-B602/home/103959842,NWMLS,1916266,N,Y,47.5730102,-122.3711301
PAST SALE,May-20-2022,Condo/Co-op,6920 California Ave SW #11,Seattle,WA,98136,445000,2,2.0,Gatewood,1382,,1987,,322,516,Sold,,,https://www.redfin.com/WA/Seattle/6920-California-Ave-SW-98136/unit-11/home/66649,NWMLS,1898676,N,Y,47.5415448,-122.3867898
PAST SALE,May-17-2022,Condo/Co-op,2401 SW Brandon St #204,Seattle,WA,98106,440000,2,1.5,Delridge,962,,1999,,457,559,Sold,,,https://www.redfin.com/WA/Seattle/2401-SW-Brandon-St-98106/unit-204/home/68702,NWMLS,1907416,N,Y,47.5536374,-122.3633627
PAST SALE,May-20-2022,Condo/Co-op,1374 Alki Ave SW #201,Seattle,WA,98116,925000,3,2.0,Alki,1395,,1990,,663,1172,Sold,,,https://www.redfin.com/WA/Seattle/1374-Alki-Ave-SW-98116/unit-201/home/28509,NWMLS,1916465,N,Y,47.5911456,-122.3919563
PAST SALE,May-19-2022,Single Family Residential,12839 Renton Ave S,Seattle,WA,98178,891000,5,2.0,Earlington,2880,21228,1953,,309,,Sold,,,https://www.redfin.com/WA/Seattle/12839-Renton-Ave-S-98178/home/195564,NWMLS,1915909,N,Y,47.487398,-122.2337824
PAST SALE,May-19-2022,Single Family Residential,8539 S 121st St,Seattle,WA,98178,580000,3,2.0,Bryn Mawr,1670,6000,1970,,347,,Sold,,,https://www.redfin.com/WA/Seattle/8539-S-121st-St-98178/home/197866,NWMLS,1902392,N,Y,47.4943972,-122.2242693
PAST SALE,May-17-2022,Mobile/Manufactured Home,8820 51st Avenue Ct E #35,Tacoma,WA,98446,100000,2,2.0,Midland,1322,,1980,,76,,Sold,,,https://www.redfin.com/WA/Tacoma/8820-51st-Ave-Ct-E-98446/unit-35/home/3014374,NWMLS,1888336,N,Y,47.1765416,-122.3617576
PAST SALE,May-18-2022,Mobile/Manufactured Home,2827 34th Avenue Ct E #58,Tacoma,WA,98443,79900,2,2.0,Tacoma,1337,,1975,,60,,Sold,,,https://www.redfin.com/WA/Tacoma/2827-34th-Ave-Ct-E-98443/unit-58/home/3011766,NWMLS,1914472,N,Y,47.2132239,-122.3824023
PAST SALE,May-17-2022,Townhouse,3312 S Juneau St,Seattle,WA,98118,470000,0,,Genesee,1100,1423,2001,,427,20,Sold,,,https://www.redfin.com/WA/Seattle/3312-S-Juneau-St-98118/home/479645,NWMLS,1936350,N,Y,47.5499804,-122.2899081
PAST SALE,May-17-2022,Single Family Residential,1348 S Dawson St,Seattle,WA,98108,625000,3,2.0,Beacon Hill,1900,7198,1905,,329,,Sold,,,https://www.redfin.com/WA/Seattle/1348-S-Dawson-St-98108/home/481345,NWMLS,1918185,N,Y,47.5558203,-122.3139816
PAST SALE,May-18-2022,Single Family Residential,3421 21st Ave S,Seattle,WA,98144,885000,3,1.5,N Beacon Hill,2440,4002,1962,,363,,Sold,,,https://www.redfin.com/WA/Seattle/3421-21st-Ave-S-98144/home/169639,NWMLS,1925437,N,Y,47.5724805,-122.304919
PAST SALE,May-19-2022,Single Family Residential,2950 S Graham St,Seattle,WA,98108,715000,4,2.0,Beacon Hill,2060,8723,1921,,347,,Sold,,,https://www.redfin.com/WA/Seattle/2950-S-Graham-St-98108/home/478102,NWMLS,1913774,N,Y,47.5464808,-122.295002
PAST SALE,May-17-2022,Single Family Residential,430 26th Ave S,Seattle,WA,98144,847000,3,2.0,Judkins,1270,2073,1904,,667,,Sold,,,https://www.redfin.com/WA/Seattle/430-26th-Ave-S-98144/home/142807,NWMLS,1923041,N,Y,47.5983004,-122.2984461
PAST SALE,May-17-2022,Single Family Residential,3110 Wetmore Ave S,Seattle,WA,98144,560000,2,1.0,Mt Baker,650,3314,1911,,862,,Sold,,,https://www.redfin.com/WA/Seattle/3110-Wetmore-Ave-S-98144/home/171522,NWMLS,1809431,N,Y,47.5752682,-122.293873
PAST SALE,May-17-2022,Townhouse,5002 S 30th St Unit B4,Tacoma,WA,98409,315000,2,1.5,Fircrest,1034,1698,2004,,305,165,Sold,,,https://www.redfin.com/WA/Tacoma/5002-S-30th-St-98409/unit-B4/home/3043086,NWMLS,1904550,N,Y,47.2330702,-122.504053
PAST SALE,May-17-2022,Single Family Residential,3117 SW Barton,Seattle,WA,98126,690000,3,1.0,Westwood,1200,4930,1950,,575,,Sold,,,https://www.redfin.com/WA/Seattle/3117-SW-Barton-St-98126/home/473842,NWMLS,1922010,N,Y,47.5208835,-122.3734825
PAST SALE,May-18-2022,Townhouse,3018 SW Bataan St,Seattle,WA,98126,752000,3,3.5,High Point,1710,2281,2011,,440,246,Sold,,,https://www.redfin.com/WA/Seattle/3018-SW-Bataan-St-98126/home/18661901,NWMLS,1912991,N,Y,47.5458347,-122.3712613
PAST SALE,May-20-2022,Single Family Residential,9246 22nd Ave SW,Seattle,WA,98106,475000,2,1.0,Westwood,670,3213,1942,,709,,Sold,,,https://www.redfin.com/WA/Seattle/9246-22nd-Ave-SW-98106/home/472032,NWMLS,1906901,N,Y,47.5196581,-122.3616173
PAST SALE,May-20-2022,Vacant Land,9059 16th Ave SW,Seattle,WA,98106,612500,,,Delridge,,4932,,,,,Sold,,,https://www.redfin.com/WA/Seattle/9059-16th-Ave-SW-98106/home/475192,NWMLS,1878145,N,Y,47.5211776,-122.3554114
PAST SALE,May-17-2022,Single Family Residential,803 99th St S,Tacoma,WA,98444,430000,2,1.5,Parkland,985,9000,1936,,437,,Sold,,,https://www.redfin.com/WA/Tacoma/803-99th-St-S-98444/home/11832778,NWMLS,1916200,N,Y,47.167637,-122.4435402
PAST SALE,May-18-2022,Single Family Residential,7906 A St,Tacoma,WA,98408,547000,4,2.5,Se Tacoma,1564,6975,2014,,350,,Sold,,,https://www.redfin.com/WA/Tacoma/7906-A-St-98408/home/69367165,NWMLS,1913071,N,Y,47.1852651,-122.4317748
PAST SALE,May-19-2022,Single Family Residential,7642 S Sheridan Ave,Tacoma,WA,98408,590000,5,3.5,South Tacoma,2077,9750,1967,,284,,Sold,,,https://www.redfin.com/WA/Tacoma/7642-S-Sheridan-Ave-98408/home/2838340,NWMLS,1916726,N,Y,47.1866659,-122.4528265
PAST SALE,May-20-2022,Single Family Residential,7809 S I St,Tacoma,WA,98408,370000,4,2.0,South Tacoma,1376,31860,1952,,269,,Sold,,,https://www.redfin.com/WA/Tacoma/7809-S-I-St-98408/home/2610548,NWMLS,1925965,N,Y,47.1859181,-122.445401
PAST SALE,May-23-2022,Single Family Residential,10503 Golden Given Rd E,Tacoma,WA,98445,660000,4,3.0,Midland,2642,15246,1990,,250,,Sold,,,https://www.redfin.com/WA/Tacoma/10503-Golden-Given-Rd-E-98445/home/2554477,NWMLS,1904545,N,Y,47.161376,-122.4150803
PAST SALE,May-23-2022,Single Family Residential,8015 Golden Given Rd E,Tacoma,WA,98404,450000,2,1.0,Midland,1500,87120,1910,,300,,Sold,,,https://www.redfin.com/WA/Tacoma/8015-Golden-Given-Rd-E-98404/home/2624667,NWMLS,1889921,N,Y,47.1838887,-122.4146589
PAST SALE,May-18-2022,Single Family Residential,7902 37th Ave SW,Seattle,WA,98126,725000,3,2.0,Gatewood,1250,4558,1948,,580,,Sold,,,https://www.redfin.com/WA/Seattle/7902-37th-Ave-SW-98126/home/470235,NWMLS,1912956,N,Y,47.531827,-122.3790444
PAST SALE,May-18-2022,Single Family Residential,9817 Marine View Dr SW,Seattle,WA,98136,1000000,3,2.0,West Seattle,2480,8505,1948,,403,,Sold,,,https://www.redfin.com/WA/SEATTLE/9817-MARINE-VIEW-DR-SW-98136/home/158208,NWMLS,1917499,N,Y,47.514766,-122.391842
PAST SALE,May-20-2022,Single Family Residential,9438 26th Ave SW,Seattle,WA,98106,690000,4,1.0,Westwood Village,1740,7296,1957,,397,,Sold,,,https://www.redfin.com/WA/Seattle/9438-26th-Ave-SW-98106/home/473382,NWMLS,1915524,N,Y,47.5180227,-122.3656302
PAST SALE,May-23-2022,Single Family Residential,11020 Marine View Dr SW,Seattle,WA,98146,937000,4,3.0,Arbor Heights,1930,11083,1976,,485,,Sold,,,https://www.redfin.com/WA/Seattle/11020-Marine-View-Dr-SW-98146/home/158185,NWMLS,1916065,N,Y,47.5040376,-122.3797257
PAST SALE,May-18-2022,Single Family Residential,8656 13th Ave SW,Seattle,WA,98106,870000,3,1.0,Highland Park,1440,5950,1942,,604,,Sold,,,https://www.redfin.com/WA/Seattle/8656-13th-Ave-SW-98106/home/476138,NWMLS,1917776,N,Y,47.5248482,-122.3515781
PAST SALE,May-17-2022,Single Family Residential,833 S Anderson St,Tacoma,WA,98405,481000,2,1.0,Central Tacoma,972,3750,1917,,495,,Sold,,,https://www.redfin.com/WA/Tacoma/833-S-Anderson-St-98405/home/2776482,NWMLS,1911573,N,Y,47.2524292,-122.4721822
PAST SALE,May-19-2022,Single Family Residential,831 N Steele,Tacoma,WA,98406,750000,5,2.0,North Tacoma,1714,3825,1910,,438,,Sold,,,https://www.redfin.com/WA/Tacoma/831-N-Steele-St-98403/home/2714125,NWMLS,1927295,N,Y,47.2583488,-122.467874
PAST SALE,May-17-2022,Single Family Residential,1531 S Oakes St,Tacoma,WA,98405,455000,3,1.0,Central Tacoma,2088,7200,1943,,218,,Sold,,,https://www.redfin.com/WA/Tacoma/1531-S-Oakes-St-98405/home/2748501,NWMLS,1920106,N,Y,47.245354,-122.4715499
PAST SALE,May-20-2022,Multi-Family (2-4 Unit),2216 -2220 S 8TH St,Tacoma,WA,98405,610000,4,2.0,Tacoma,1504,9000,1948,,406,,Sold,,,https://www.redfin.com/WA/Tacoma/2220-S-8th-St-98405/home/2904860,NWMLS,1916461,N,Y,47.2535416,-122.4667286
PAST SALE,May-23-2022,Single Family Residential,3024 S 11th St,Tacoma,WA,98405,400000,3,1.0,Central Tacoma,1124,4500,1905,,356,,Sold,,,https://www.redfin.com/WA/Tacoma/3024-S-11th-St-98405/home/2772720,NWMLS,1929192,N,Y,47.2506378,-122.4760854
PAST SALE,May-20-2022,Single Family Residential,2106 S Wilkeson St,Tacoma,WA,98405,460000,3,1.5,Tacoma,1100,5750,1970,,418,,Sold,,,https://www.redfin.com/WA/Tacoma/2106-S-Wilkeson-St-98405/home/2830945,NWMLS,1916297,N,Y,47.2402752,-122.4593951
PAST SALE,May-20-2022,Single Family Residential,3216 177th St E,Tacoma,WA,98446,675000,3,2.0,Tacoma,1650,43000,1979,,409,,Sold,,,https://www.redfin.com/WA/Tacoma/3216-177th-St-E-98446/home/2971792,NWMLS,1922775,N,Y,47.0954854,-122.3858771
PAST SALE,May-17-2022,Single Family Residential,1451 Cherry Ave,Fircrest,WA,98466,650000,4,2.5,Fircrest,2004,2889,2003,,324,112,Sold,,,https://www.redfin.com/WA/Fircrest/1451-Cherry-Ave-98466/home/3024949,NWMLS,1885076,N,Y,47.2193043,-122.5065762
PAST SALE,May-18-2022,Single Family Residential,4818 S 49th St,Tacoma,WA,98409,440000,3,1.0,South Tacoma,920,5100,1985,,478,,Sold,,,https://www.redfin.com/WA/Tacoma/4818-S-49th-St-98409/home/2827800,NWMLS,1913634,N,Y,47.2124767,-122.5018278
PAST SALE,May-18-2022,Single Family Residential,3613 S Madison St,Tacoma,WA,98409,425000,2,1.5,Tacoma,980,6000,1918,,434,,Sold,,,https://www.redfin.com/WA/Tacoma/3613-S-Madison-St-98409/home/2955464,NWMLS,1914833,N,Y,47.2258763,-122.4894633
PAST SALE,May-18-2022,Single Family Residential,2327 N Highland St,Tacoma,WA,98406,635000,3,1.0,North Tacoma,1211,7500,1955,,524,,Sold,,,https://www.redfin.com/WA/Tacoma/2327-N-Highland-St-98406/home/2990040,NWMLS,1919590,N,Y,47.270061,-122.5127776
PAST SALE,May-20-2022,Single Family Residential,1023 S Orchard St,Tacoma,WA,98465,600000,4,1.5,Central Tacoma,1782,7099,1960,,337,,Sold,,,https://www.redfin.com/WA/Tacoma/1023-S-Orchard-St-98465/home/2451419,NWMLS,1914893,N,Y,47.2511703,-122.5047052
PAST SALE,May-19-2022,Single Family Residential,4051 S Gregory St,Tacoma,WA,98409,435000,3,1.0,South Tacoma,1011,5500,1950,,430,,Sold,,,https://www.redfin.com/WA/Tacoma/4051-S-Gregory-St-98409/home/2976462,NWMLS,1918791,N,Y,47.2274427,-122.4912619
PAST SALE,May-23-2022,Single Family Residential,3727 N Baltimore St,Tacoma,WA,98407,530000,3,1.0,Tacoma,1055,6480,1968,,502,,Sold,,,https://www.redfin.com/WA/Tacoma/3727-N-Baltimore-St-98407/home/2767572,NWMLS,1918861,N,Y,47.2826946,-122.5074581
PAST SALE,May-20-2022,Condo/Co-op,4907 Main St Unit 510X,Tacoma,WA,98407,474141,1,1.0,North Tacoma,634,,2021,,748,283,Sold,,,https://www.redfin.com/WA/Tacoma/4907-Main-St-98407/unit-510X/home/179565688,NWMLS,1939039,N,Y,47.2966646,-122.5005707
PAST SALE,May-23-2022,Single Family Residential,2024 Willow Ln W,University Place,WA,98466,675000,3,2.0,University Place,1908,8276,1958,,354,,Sold,,,https://www.redfin.com/WA/University-Place/2024-Willow-Ln-W-98466/home/2461878,NWMLS,1916375,N,Y,47.2410241,-122.5401102
PAST SALE,May-23-2022,Single Family Residential,9632 24th Ave SW,Seattle,WA,98106,785000,4,2.0,Highland Park,2620,8160,1957,,300,,Sold,,,https://www.redfin.com/WA/Seattle/9632-24th-Ave-SW-98106/home/179835,NWMLS,1915225,N,Y,47.5163759,-122.3627121
PAST SALE,May-23-2022,Single Family Residential,10627 34th Ave SW,Seattle,WA,98146,920000,2,1.5,Arbor Heights,1363,7303,1962,,675,,Sold,,,https://www.redfin.com/WA/Seattle/10627-34th-Ave-SW-98146/home/158622,NWMLS,1924460,N,Y,47.5073719,-122.3750152
PAST SALE,May-17-2022,Single Family Residential,767 110th St S,Tacoma,WA,98444,399000,4,1.0,Parkland,1364,12000,1946,,293,,Sold,,,https://www.redfin.com/WA/Tacoma/767-110th-St-S-98444/home/2936387,NWMLS,1904034,N,Y,47.1576359,-122.4433743
PAST SALE,May-17-2022,Single Family Residential,604 140th St S,Tacoma,WA,98444,700000,5,1.5,Parkland,2135,15750,1966,,328,,Sold,,,https://www.redfin.com/WA/Tacoma/604-140th-St-S-98444/home/2920073,NWMLS,1917290,N,Y,47.1301363,-122.44027
PAST SALE,May-19-2022,Townhouse,14866 36th Avenue Ct E #14,Tacoma,WA,98446,388000,3,2.0,Brookdale,1228,,2006,,316,99,Sold,,,https://www.redfin.com/WA/Tacoma/14866-36th-Ave-Ct-E-98446/unit-14/home/3039997,NWMLS,1810514,N,Y,47.1222158,-122.3819322
PAST SALE,May-20-2022,Mobile/Manufactured Home,2112 139th St E #237,Tacoma,WA,98445,250000,2,2.0,Brookdale,1620,,2020,,154,,Sold,,,https://www.redfin.com/WA/Parkland/2112-139th-Street-Ct-E-98445/unit-237/home/179112156,NWMLS,1918623,N,Y,47.1305261,-122.4042047
PAST SALE,May-20-2022,Single Family Residential,18922 34th Ave E,Tacoma,WA,98446,601000,3,2.5,Frederickson,1648,42900,1990,,365,,Sold,,,https://www.redfin.com/WA/Tacoma/18922-34th-Ave-E-98446/home/2956793,NWMLS,1916093,N,Y,47.0841122,-122.3859206
PAST SALE,May-20-2022,Single Family Residential,14523 20th Avenue Ct E,Tacoma,WA,98445,634950,5,3.5,Brookdale,2206,6496,2012,,288,,Sold,,,https://www.redfin.com/WA/Tacoma/14523-20th-Ave-Ct-E-98445/home/22792008,NWMLS,1908897,N,Y,47.1243072,-122.4018713
PAST SALE,May-20-2022,Single Family Residential,3721 180th St E,Tacoma,WA,98446,470000,3,2.5,Frederickson,1400,6440,2002,,336,3,Sold,,,https://www.redfin.com/WA/Tacoma/3721-180th-St-E-98446/home/2999035,NWMLS,1918746,N,Y,47.0932529,-122.3796668
PAST SALE,May-23-2022,Single Family Residential,12008 9th Avenue Ct E,Tacoma,WA,98445,435000,5,2.5,Midland,2264,2940,2008,,192,100,Sold,,,https://www.redfin.com/WA/Tacoma/12008-9th-Ave-Ct-E-98445/home/16888814,NWMLS,1896225,N,Y,47.1478842,-122.4178722
PAST SALE,May-17-2022,Single Family Residential,3014 SW Harbor Ln,Seattle,WA,98126,500000,2,1.0,Alki,1370,3600,1914,,365,,Sold,,,https://www.redfin.com/WA/Seattle/3014-SW-Harbor-Ln-98126/home/150784,NWMLS,1908598,N,Y,47.5770682,-122.3723229
PAST SALE,May-19-2022,Single Family Residential,4623 SW Frontenac St,Seattle,WA,98136,950000,2,1.0,Lincoln Park,1340,7500,1920,,709,,Sold,,,https://www.redfin.com/WA/Seattle/4623-SW-Frontenac-St-98136/home/152787,NWMLS,1924700,N,Y,47.5403151,-122.3923742
PAST SALE,May-19-2022,Single Family Residential,4409 SW Stevens St,Seattle,WA,98116,755000,1,1.0,Admiral,800,1554,1916,,944,,Sold,,,https://www.redfin.com/WA/Seattle/4409-SW-Stevens-St-98116/home/331177,NWMLS,1908162,N,Y,47.5768538,-122.3885813
PAST SALE,May-20-2022,Single Family Residential,5702 N 14th St,Tacoma,WA,98406,606000,3,2.0,Westgate,1176,7520,1970,,515,,Sold,,,https://www.redfin.com/WA/Tacoma/5702-N-14th-St-98406/home/2990231,NWMLS,1882136,N,Y,47.2624868,-122.5135684
PAST SALE,May-20-2022,Single Family Residential,3616 8th St,Tacoma,WA,98405,470000,3,1.0,Tacoma,1112,5227,1925,,423,,Sold,,,https://www.redfin.com/WA/Tacoma/3616-S-8th-St-98405/home/2819930,NWMLS,1925153,N,Y,47.2533582,-122.4844428
PAST SALE,May-20-2022,Single Family Residential,8121 S 14th St,Tacoma,WA,98465,800000,4,3.0,Tacoma,2640,12700,1986,,303,,Sold,,,https://www.redfin.com/WA/Tacoma/8121-S-14th-St-98465/home/2989711,NWMLS,1910315,N,Y,47.2479767,-122.5463546
PAST SALE,May-18-2022,Single Family Residential,3701 E J St,Tacoma,WA,98404,430000,4,2.0,East Tacoma,1130,6000,1969,,381,,Sold,,,https://www.redfin.com/WA/Tacoma/3701-E-J-St-98404/home/2918726,NWMLS,1903818,N,Y,47.2245742,-122.417146
PAST SALE,May-19-2022,Single Family Residential,3855 E J St,Tacoma,WA,98404,415000,2,1.0,East Tacoma,824,5000,1943,,504,,Sold,,,https://www.redfin.com/WA/Tacoma/3855-E-J-St-98404/home/2918747,NWMLS,1916820,N,Y,47.2211048,-122.4171952
PAST SALE,May-17-2022,Single Family Residential,814 E 51st St,Tacoma,WA,98404,625000,5,3.0,East Tacoma,2163,9000,1911,,289,,Sold,,,https://www.redfin.com/WA/Tacoma/814-E-51st-St-98404/home/2917530,NWMLS,1924764,N,Y,47.210596,-122.4200811
PAST SALE,May-19-2022,Single Family Residential,6217 McKinley Ave,Tacoma,WA,98404,330000,2,1.0,Se Tacoma,628,3500,1925,,525,,Sold,,,https://www.redfin.com/WA/Tacoma/6217-E-McKinley-Ave-98404/home/2916347,NWMLS,1920303,N,Y,47.2000719,-122.4205718
PAST SALE,May-19-2022,Single Family Residential,1005 E 30th St,Tacoma,WA,98404,666500,3,2.0,Tacoma,2906,9500,1928,,229,,Sold,,,https://www.redfin.com/WA/Tacoma/1005-E-30th-St-98404/home/2715548,NWMLS,1922637,N,Y,47.2360256,-122.4187113
PAST SALE,May-19-2022,Single Family Residential,3216 E G St,Tacoma,WA,98404,260000,3,1.0,East Tacoma,2082,2500,1926,,125,,Sold,,,https://www.redfin.com/WA/Tacoma/3216-E-G-St-98404/home/2716224,NWMLS,1896126,N,Y,47.2327002,-122.4233052
PAST SALE,May-20-2022,Single Family Residential,2046 E 36th St,Tacoma,WA,98404,600000,5,2.0,East Tacoma,3726,12500,2000,,161,,Sold,,,https://www.redfin.com/WA/Tacoma/2046-E-36th-St-98404/home/2589959,NWMLS,1917814,N,Y,47.226156,-122.3995209
PAST SALE,May-19-2022,Townhouse,1526 13th Ave S Unit B,Seattle,WA,98144,870000,3,2.0,Beacon Hill,1608,891,2022,,541,,Sold,,,https://www.redfin.com/WA/Seattle/1526-13th-Ave-S-98144/unit-B/home/179090632,NWMLS,1917972,N,Y,47.5891433,-122.3157134
PAST SALE,May-20-2022,Townhouse,1340 Yakima Ave S Unit C13,Seattle,WA,98144,775000,3,2.0,Judkins,1290,634,2022,,601,340,Sold,,,https://www.redfin.com/WA/Seattle/1340-Yakima-Ave-S-98144/unit-C13/home/179174311,NWMLS,1921923,N,Y,47.5913678,-122.2940835
PAST SALE,May-20-2022,Single Family Residential,3202 S Byron St,Seattle,WA,98144,740000,4,2.0,Mt Baker,1610,3600,1926,,460,,Sold,,,https://www.redfin.com/WA/Seattle/3202-S-Byron-St-98144/home/171472,NWMLS,1911136,N,Y,47.5750305,-122.2924549
PAST SALE,May-20-2022,Townhouse,1537 NW 60th St Unit B,Seattle,WA,98107,835000,2,2.5,Ballard,1350,796,2017,,619,,Sold,,,https://www.redfin.com/WA/Seattle/1537-NW-60th-St-98107/unit-B/home/113995485,NWMLS,1914433,N,Y,47.6720791,-122.3780591
PAST SALE,May-20-2022,Condo/Co-op,1746 NW 57th St #201,Seattle,WA,98107,640000,2,2.0,Ballard,971,,1996,,659,555,Sold,,,https://www.redfin.com/WA/Seattle/1746-NW-57th-St-98107/unit-201/home/64692,NWMLS,1929720,N,Y,47.6703836,-122.3809582
PAST SALE,May-20-2022,Townhouse,2414 B NW 64th St,Seattle,WA,98107,860000,3,2.0,Ballard,1472,821,2019,,584,,Sold,,,https://www.redfin.com/WA/Seattle/2414-NW-64th-St-98107/home/179535225,NWMLS,1926000,N,Y,47.6755031,-122.3884244
PAST SALE,May-18-2022,Condo/Co-op,3635 Fremont Ave N #205,Seattle,WA,98103,442000,1,1.0,Fremont,719,,1979,,615,408,Sold,,,https://www.redfin.com/WA/Seattle/3635-Fremont-Ave-N-98103/unit-205/home/35562,NWMLS,1916248,N,Y,47.6523787,-122.3502595
PAST SALE,May-20-2022,Single Family Residential,709 N 39th St,Seattle,WA,98103,890000,3,2.0,Fremont,1560,3375,1901,,571,,Sold,,,https://www.redfin.com/WA/Seattle/709-N-39th-St-98103/home/303723,NWMLS,1913341,N,Y,47.6539919,-122.3493679
PAST SALE,May-20-2022,Condo/Co-op,3615 Whitman Ave N #302,Seattle,WA,98103,645000,2,1.0,Fremont,955,,1989,,675,484,Sold,,,https://www.redfin.com/WA/Seattle/3615-Whitman-Ave-N-98103/unit-302/home/17383409,NWMLS,1920531,N,Y,47.6513277,-122.3463004
PAST SALE,May-23-2022,Condo/Co-op,4219 Whitman Ave N #3,Seattle,WA,98103,340000,1,1.0,Wallingford,623,,1970,,546,375,Sold,,,https://www.redfin.com/WA/Seattle/4219-Whitman-Ave-N-98103/unit-3/home/2064677,NWMLS,1913138,N,Y,47.6583502,-122.3459869
PAST SALE,May-20-2022,Condo/Co-op,2510 W Manor Pl #312,Seattle,WA,98199,375000,1,1.0,Magnolia,820,56224,1974,,457,585,Sold,,,https://www.redfin.com/WA/Seattle/2510-W-Manor-Pl-98199/unit-312/home/40294,NWMLS,1902283,N,Y,47.6536478,-122.3894468
PAST SALE,May-20-2022,Condo/Co-op,3601 24th Ave W #104,Seattle,WA,98199,389000,1,1.0,Magnolia,712,,1969,,546,294,Sold,,,https://www.redfin.com/WA/Seattle/3601-24th-Ave-W-98199/unit-104/home/57561,NWMLS,1915792,N,Y,47.6524106,-122.3875167
PAST SALE,May-19-2022,Townhouse,1108 NE 50th St,Seattle,WA,98105,732650,3,2.5,University District,1330,1056,2006,,551,,Sold,,,https://www.redfin.com/WA/Seattle/1108-NE-50th-St-98105/home/8189239,NWMLS,1913847,N,Y,47.6651416,-122.3159303
PAST SALE,May-23-2022,Townhouse,6571 5th Ave NE Unit A,Seattle,WA,98115,870000,2,1.5,Green Lake,1020,1146,2001,,853,,Sold,,,https://www.redfin.com/WA/Seattle/6571-5th-Ave-NE-98115/unit-A/home/306292,NWMLS,1927541,N,Y,47.6775006,-122.325074
PAST SALE,May-18-2022,Condo/Co-op,4343 Roosevelt Way NE Unit A,Seattle,WA,98105,635000,2,1.0,Roosevelt,933,,1996,,681,556,Sold,,,https://www.redfin.com/WA/Seattle/4343-Roosevelt-Way-NE-98105/unit-A/home/32068,NWMLS,1908589,N,Y,47.6606289,-122.3180337
PAST SALE,May-18-2022,Condo/Co-op,2805 NE 125th St #304,Seattle,WA,98125,370000,2,2.0,Lake City,856,,1996,,432,554,Sold,,,https://www.redfin.com/WA/Seattle/2805-NE-125th-St-98125/unit-304/home/2185,NWMLS,1907490,N,Y,47.7190179,-122.2974506
PAST SALE,May-19-2022,Single Family Residential,10816 12th Ave NE,Seattle,WA,98125,750000,2,1.0,Maple Leaf,880,7936,1947,,852,,Sold,,,https://www.redfin.com/WA/Seattle/10816-12th-Ave-NE-98125/home/107159,NWMLS,1922628,N,Y,47.70754,-122.3146341
PAST SALE,May-20-2022,Vacant Land,8306 Seward Park Ave S,Seattle,WA,98118,200000,,,Seward Park,,5000,,,,,Sold,,,https://www.redfin.com/WA/Seattle/8306-Seward-Park-Ave-S-98118/home/490574,NWMLS,1925235,N,Y,47.5292518,-122.2659841
PAST SALE,May-23-2022,Single Family Residential,9302 Sturtevant Ave S,Seattle,WA,98118,751500,3,3.0,Seattle,1522,11376,2022,,494,,Sold,,,https://www.redfin.com/WA/Seattle/9302-Sturtevant-Ave-S-98118/home/178764383,NWMLS,1895523,N,Y,47.5187257,-122.2683441
PAST SALE,May-23-2022,Single Family Residential,9306 Sturtevant Ave S,Seattle,WA,98118,676000,3,2.0,Seattle,1337,5428,2022,,506,,Sold,,,https://www.redfin.com/WA/Seattle/9306-Sturtevant-Ave-S-98118/home/178928188,NWMLS,1907981,N,Y,47.5186844,-122.2683327
PAST SALE,May-17-2022,Condo/Co-op,3201 Pacific Ave #206,Tacoma,WA,98418,352000,2,2.0,Tacoma,1292,,2002,,272,503,Sold,,,https://www.redfin.com/WA/Tacoma/3201-Pacific-Ave-98418/unit-206/home/3030533,NWMLS,1912690,N,Y,47.2316533,-122.4336347
PAST SALE,May-17-2022,Single Family Residential,4012 S Thompson Ave,Tacoma,WA,98418,275000,2,1.0,South Tacoma,864,5750,1913,,318,,Sold,,,https://www.redfin.com/WA/Tacoma/4012-S-Thompson-Ave-98418/home/2978709,NWMLS,1921594,N,Y,47.2203511,-122.4452436
PAST SALE,May-17-2022,Single Family Residential,4867 E Q St,Tacoma,WA,98404,450000,3,2.5,Tacoma,1497,2800,2015,,301,95,Sold,,,https://www.redfin.com/WA/Tacoma/4867-E-Q-St-98404/home/39892384,NWMLS,1905699,N,Y,47.2122213,-122.4064877
PAST SALE,May-18-2022,Townhouse,2109 Tacoma Ct,Tacoma,WA,98405,430000,2,2.5,New Tacoma,1268,1080,2004,,339,425,Sold,,,https://www.redfin.com/WA/Tacoma/2109-Tacoma-Ct-98405/home/113491830,NWMLS,1914933,N,Y,47.2420302,-122.4428543
PAST SALE,May-20-2022,Single Family Residential,4628 S Thompson Ave,Tacoma,WA,98408,485000,5,1.0,Lincoln,1616,6500,1911,,300,,Sold,,,https://www.redfin.com/WA/Tacoma/4628-S-Thompson-Ave-98408/home/2979243,NWMLS,1920417,N,Y,47.2141974,-122.445344
PAST SALE,May-18-2022,Single Family Residential,1671 S 56th St,Tacoma,WA,98408,470000,4,2.5,South Tacoma,1955,6400,1907,,240,,Sold,,,https://www.redfin.com/WA/Tacoma/1671-S-56th-St-98408/home/2841585,NWMLS,1914508,N,Y,47.2067486,-122.4578461
PAST SALE,May-18-2022,Single Family Residential,3509 S M St,Tacoma,WA,98418,440000,3,1.0,South Tacoma,1394,4810,1924,,316,,Sold,,,https://www.redfin.com/WA/Tacoma/3509-S-M-St-98418/home/2977808,NWMLS,1917288,N,Y,47.2276265,-122.450327
PAST SALE,May-17-2022,Townhouse,608 SW 100th St,Seattle,WA,98106,635800,3,2.5,White Center,1660,2300,2021,,383,306,Sold,,,https://www.redfin.com/WA/Seattle/608-SW-100th-St-98106/home/145709118,NWMLS,1696941,N,Y,47.513982,-122.342458
PAST SALE,May-19-2022,Single Family Residential,4911 S Genesee St,Seattle,WA,98118,745000,2,1.0,Genesee,1640,7200,1925,,454,,Sold,,,https://www.redfin.com/WA/Seattle/4911-S-Genesee-St-98118/home/492500,NWMLS,1922404,N,Y,47.5639237,-122.2714782
PAST SALE,May-18-2022,Townhouse,4006 S Bozeman,Seattle,WA,98118,673000,4,3.5,Beacon Hill,1450,1080,2006,,464,,Sold,,,https://www.redfin.com/WA/Seattle/4006-S-Bozeman-St-98118/home/2119833,NWMLS,1917027,N,Y,47.5322973,-122.2816454
PAST SALE,May-19-2022,Single Family Residential,8123 48th Ave S,Seattle,WA,98118,635000,4,1.0,Rainier Valley,1170,4500,1914,,543,,Sold,,,https://www.redfin.com/WA/Seattle/8123-48th-Ave-S-98118/home/174325,NWMLS,1911378,N,Y,47.5295847,-122.2730541
PAST SALE,May-19-2022,Single Family Residential,3111 S Hudson St,Seattle,WA,98108,700000,4,1.0,Seattle,1410,6225,1971,,496,,Sold,,,https://www.redfin.com/WA/Seattle/3111-S-Hudson-St-98108/home/477973,NWMLS,1922131,N,Y,47.5569455,-122.2924497
PAST SALE,May-19-2022,Single Family Residential,4119 Lexington Pl S,Seattle,WA,98118,850450,3,2.0,Columbia City,1616,5777,1925,,526,,Sold,,,https://www.redfin.com/WA/Seattle/4119-Lexington-Pl-S-98118/home/171973,NWMLS,1924613,N,Y,47.5656236,-122.2916263
PAST SALE,May-20-2022,Single Family Residential,10452 9th Ave SW,Seattle,WA,98146,965000,4,2.5,White Center,2589,7620,2017,,373,,Sold,,,https://www.redfin.com/WA/Seattle/10452-9th-Ave-SW-98146/home/181133,NWMLS,1913379,N,Y,47.5086908,-122.3457596
PAST SALE,May-19-2022,Single Family Residential,4546 S Lucile St,Seattle,WA,98118,849000,5,2.5,Columbia City,2130,3090,1916,,399,,Sold,,,https://www.redfin.com/WA/Seattle/4546-S-Lucile-St-98118/home/490978,NWMLS,1905096,N,Y,47.5528232,-122.2764914
PAST SALE,May-19-2022,Single Family Residential,7047 C 16th Ave NW,Seattle,WA,98117,719000,2,1.0,Loyal Heights,800,4668,2022,,899,,Sold,,,https://www.redfin.com/WA/Seattle/7047-C-16th-Ave-NW-98117/home/179178483,NWMLS,1915425,N,Y,47.6809333,-122.3781492
PAST SALE,May-18-2022,Condo/Co-op,2132 5th Ave #4,Seattle,WA,98121,300000,1,1.0,Belltown,398,,1922,,754,396,Sold,,,https://www.redfin.com/WA/Seattle/2132-5th-Ave-98121/unit-4/home/12093310,NWMLS,1887631,N,Y,47.6153683,-122.3413564
PAST SALE,May-19-2022,Condo/Co-op,2510 6th Ave #610,Seattle,WA,98121,818000,1,1.0,Denny Triangle,985,,2021,,830,912,Sold,,,https://www.redfin.com/WA/Seattle/2510-6th-Ave-98121/unit-610/home/179103883,NWMLS,1919086,N,Y,47.6182832,-122.344644
PAST SALE,May-20-2022,Condo/Co-op,2510 6th Ave #2905,Seattle,WA,98121,753000,1,1.0,Denny Triangle,584,,2021,,1289,541,Sold,,,https://www.redfin.com/WA/Seattle/2510-6th-Ave-98121/unit-2905/home/177039007,NWMLS,1931972,N,Y,47.6182832,-122.3446441
PAST SALE,May-23-2022,Condo/Co-op,500 5th Ave W #702,Seattle,WA,98119,500000,1,1.0,Queen Anne,649,,1968,,770,446,Sold,,,https://www.redfin.com/WA/Seattle/500-5th-Ave-W-98119/unit-702/home/12537891,NWMLS,1911124,N,Y,47.6235501,-122.3628689
PAST SALE,May-20-2022,Condo/Co-op,519 W Roy St #213,Seattle,WA,98119,360000,1,1.0,Queen Anne,535,,1930,,673,375,Sold,,,https://www.redfin.com/WA/Seattle/519-W-Roy-St-98119/unit-213/home/34511,NWMLS,1912830,N,Y,47.6255981,-122.3641756
PAST SALE,May-19-2022,Single Family Residential,3335 S Alaska St,Tacoma,WA,98418,415000,2,1.5,South Tacoma,964,6600,1954,,430,,Sold,,,https://www.redfin.com/WA/Tacoma/3335-S-Alaska-St-98418/home/2755932,NWMLS,1914298,N,Y,47.2286451,-122.4574429
PAST SALE,May-19-2022,Single Family Residential,4047 E C St,Tacoma,WA,98404,450000,2,1.0,Se Tacoma,1062,9577,1954,,424,,Sold,,,https://www.redfin.com/WA/Tacoma/4047-E-C-St-98404/home/2961940,NWMLS,1920354,N,Y,47.2191256,-122.427844
PAST SALE,May-19-2022,Multi-Family (2-4 Unit),1651 S 35th St,Tacoma,WA,98418,650000,4,3.0,Lincoln,2112,6915,1919,,308,,Sold,,,https://www.redfin.com/WA/Tacoma/1651-S-35th-St-98418/home/2755934,NWMLS,1857259,N,Y,47.2283228,-122.4572525
PAST SALE,May-20-2022,Single Family Residential,6139 Yakima Ave,Tacoma,WA,98408,531000,3,2.5,Hillsdale,1587,4565,2020,,335,,Sold,,,https://www.redfin.com/WA/Tacoma/6139-S-Yakima-Ave-98408/home/171203000,NWMLS,1919757,N,Y,47.2003801,-122.4428071
PAST SALE,May-20-2022,Single Family Residential,6712 S C St,Tacoma,WA,98408,469000,3,1.0,South Tacoma,1446,6250,1930,,324,,Sold,,,https://www.redfin.com/WA/Tacoma/6712-S-C-St-98408/home/2942843,NWMLS,1920730,N,Y,47.1961309,-122.4356981
PAST SALE,May-23-2022,Single Family Residential,4834 S Thompson Ave,Tacoma,WA,98408,580000,3,3.0,South Tacoma,1372,6250,1906,,423,,Sold,,,https://www.redfin.com/WA/Tacoma/4834-S-Thompson-Ave-98408/home/2969965,NWMLS,1920254,N,Y,47.2125,-122.4447983
PAST SALE,May-23-2022,Single Family Residential,241 S 57th St,Tacoma,WA,98408,405000,4,1.0,South Tacoma,1497,6600,1937,,271,,Sold,,,https://www.redfin.com/WA/Tacoma/241-S-57th-St-98408/home/2916189,NWMLS,1905792,N,Y,47.2056821,-122.4362341
PAST SALE,May-18-2022,Single Family Residential,907 N 67th St Unit B,Seattle,WA,98103,869500,2,2.5,Green Lake,1210,1598,2022,,719,1,Sold,,,https://www.redfin.com/WA/Seattle/907-N-67th-St-98103/unit-B/home/179106243,NWMLS,1916314,N,Y,47.677586,-122.3468346
PAST SALE,May-20-2022,Single Family Residential,328 N 79th St,Seattle,WA,98103,991777,3,1.0,Greenwood,1460,3000,1910,,679,,Sold,,,https://www.redfin.com/WA/Seattle/328-N-79th-St-98103/home/300419,NWMLS,1902517,N,Y,47.6863813,-122.3540256
PAST SALE,May-18-2022,Townhouse,931 NW 56th St,Seattle,WA,98107,924500,3,2.0,Ballard,1350,1300,2022,,685,,Sold,,,https://www.redfin.com/WA/Seattle/931-NW-56th-St-98107/home/493796,NWMLS,1913498,N,Y,47.669209,-122.369914
PAST SALE,May-19-2022,Townhouse,919 NW 56th St Unit D,Seattle,WA,98107,755950,2,2.0,Ballard,1242,925,2022,,609,,Sold,,,https://www.redfin.com/WA/Seattle/919-NW-56th-St-98107/unit-D/home/179175967,NWMLS,1922896,N,Y,47.6692589,-122.3695424
PAST SALE,May-19-2022,Single Family Residential,643 NW 48th St,Seattle,WA,98107,875000,3,1.0,Ballard,1210,4171,1944,,723,,Sold,,,https://www.redfin.com/WA/Seattle/643-NW-48th-St-98107/home/302778,NWMLS,1919205,N,Y,47.6634629,-122.365919
PAST SALE,May-23-2022,Townhouse,919 NW 56th St Unit B,Seattle,WA,98107,809950,2,2.0,Ballard,1244,675,2022,,651,,Sold,,,https://www.redfin.com/WA/Seattle/919-NW-56th-St-98107/unit-B/home/179175968,NWMLS,1922869,N,Y,47.6692589,-122.3695424
PAST SALE,May-19-2022,Vacant Land,6031 S Cedar St,Tacoma,WA,98409,163500,,,Tacoma,,5237,,,,,Sold,,,https://www.redfin.com/WA/Tacoma/6031-S-Cedar-St-98409/home/179347624,NWMLS,1929757,N,Y,47.201438,-122.475638
PAST SALE,May-20-2022,Townhouse,1835 14th Ave,Seattle,WA,98122,769950,2,2.0,Capitol Hill,956,586,2022,,805,,Sold,,,https://www.redfin.com/WA/Seattle/1835-14th-Ave-98122/home/173676146,NWMLS,1902458,N,Y,47.618587,-122.314476
PAST SALE,May-20-2022,Condo/Co-op,1400 Hubbell Pl #406,Seattle,WA,98101,340000,1,1.0,Seattle,604,,1957,,563,411,Sold,,,https://www.redfin.com/WA/Seattle/1400-Hubbell-Pl-98101/unit-406/home/6801,NWMLS,1920037,N,Y,47.6121355,-122.3298054
PAST SALE,May-20-2022,Condo/Co-op,721 Boylston Ave E #207,Seattle,WA,98102,740000,2,1.0,Capitol Hill,862,,1930,,858,465,Sold,,,https://www.redfin.com/WA/Seattle/721-Boylston-Ave-E-98102/unit-207/home/28257,NWMLS,1919286,N,Y,47.625874,-122.323956
PAST SALE,May-19-2022,Condo/Co-op,6339 Sandpoint Way NE,Seattle,WA,98115,580000,2,2.0,Sand Point,1656,,1972,,350,733,Sold,,,https://www.redfin.com/WA/Seattle/6339-Sand-Point-Way-NE-98115/home/179563834,NWMLS,1912275,N,Y,47.6748105,-122.2649197
PAST SALE,May-17-2022,Townhouse,2328 W Plymouth St Unit C,Seattle,WA,98199,950000,3,2.5,Magnolia,1528,899,2018,,622,,Sold,,,https://www.redfin.com/WA/Seattle/2328-W-Plymouth-St-98199/unit-C/home/124426,NWMLS,1907634,N,Y,47.6364796,-122.3873976
PAST SALE,May-17-2022,Condo/Co-op,2425 33rd Ave W #401,Seattle,WA,98199,995000,2,2.0,Magnolia,1372,,2003,,725,678,Sold,,,https://www.redfin.com/WA/Seattle/2425-33rd-Ave-W-98199/unit-401/home/971,NWMLS,1918580,N,Y,47.640238,-122.3999064
PAST SALE,May-17-2022,Condo/Co-op,3400 25th Ave W #301,Seattle,WA,98199,330000,0,,Magnolia,828,,1969,,399,359,Sold,,,https://www.redfin.com/WA/Seattle/3400-25th-Ave-W-98199/unit-301/home/47622,NWMLS,1936564,N,Y,47.6505249,-122.3882414
PAST SALE,May-19-2022,Condo/Co-op,3045 20th Ave W #407,Seattle,WA,98199,450000,2,1.0,Magnolia,707,12002,1988,,636,400,Sold,,,https://www.redfin.com/WA/Seattle/3045-20th-Ave-W-98199/unit-407/home/12318145,NWMLS,1913728,N,Y,47.6479092,-122.382403
PAST SALE,May-19-2022,Condo/Co-op,3711 26th Pl W #201,Seattle,WA,98199,437000,2,1.5,Magnolia,946,,1968,,462,642,Sold,,,https://www.redfin.com/WA/Seattle/3711-26th-Pl-W-98199/unit-201/home/67072,NWMLS,1911638,N,Y,47.6534016,-122.3905317
PAST SALE,May-19-2022,Condo/Co-op,3604 26th Pl W #102,Seattle,WA,98199,685900,2,2.0,Magnolia,1316,,1968,,521,439,Sold,,,https://www.redfin.com/WA/Seattle/3604-26th-Pl-W-98199/unit-102/home/51585,NWMLS,1914539,N,Y,47.6524586,-122.3885427
PAST SALE,May-17-2022,Townhouse,3607 B 22nd Ave W,Seattle,WA,98199,865000,3,3.0,Magnolia,1570,1650,2002,,551,,Sold,,,https://www.redfin.com/WA/Seattle/3607-22nd-Ave-W-98199/home/179496696,NWMLS,1911805,N,Y,47.6524268,-122.3849599
PAST SALE,May-20-2022,Condo/Co-op,2550 Thorndyke Ave W #103,Seattle,WA,98199,419950,2,2.0,Magnolia,1010,,1969,,416,540,Sold,,,https://www.redfin.com/WA/Seattle/2550-Thorndyke-Ave-W-98199/unit-103/home/65324,NWMLS,1911894,N,Y,47.6424625,-122.3844688
PAST SALE,May-18-2022,Townhouse,4320 Wallingford Ave N Unit A,Seattle,WA,98103,900000,2,2.0,Wallingford,1078,881,2022,,835,,Sold,,,https://www.redfin.com/WA/Seattle/4320-Wallingford-Ave-N-98103/unit-A/home/179261643,NWMLS,1923902,N,Y,47.6598019,-122.3358837
PAST SALE,May-20-2022,Townhouse,4322 Wallingford Ave N Unit C,Seattle,WA,98103,849000,2,2.0,Wallingford,1078,1401,2022,,788,,Sold,,,https://www.redfin.com/WA/Seattle/4322-Wallingford-Ave-N-98103/unit-C/home/179296364,NWMLS,1925953,N,Y,47.6598675,-122.3358926
PAST SALE,May-20-2022,Single Family Residential,107 NW 140th St,Seattle,WA,98177,752500,2,2.5,Broadview,1033,2237,2022,,728,1,Sold,,,https://www.redfin.com/WA/Seattle/107-NW-140th-St-98177/home/179132423,NWMLS,1920855,N,Y,47.7303556,-122.3587334
PAST SALE,May-20-2022,Single Family Residential,12732 27th Ave NE,Seattle,WA,98125,825000,4,3.0,Olympic Hills,2087,8408,1926,,395,,Sold,,,https://www.redfin.com/WA/Seattle/12732-27th-Ave-NE-98125/home/115554,NWMLS,1866693,N,Y,47.7221227,-122.298831
PAST SALE,May-20-2022,Single Family Residential,13732 20th Ave NE,Seattle,WA,98125,815000,3,1.0,Olympic Hills,1270,7200,1947,,642,,Sold,,,https://www.redfin.com/WA/Seattle/13732-20th-Ave-NE-98125/home/115051,NWMLS,1917435,N,Y,47.7294211,-122.3069881
PAST SALE,May-23-2022,Condo/Co-op,13730 15th Ave NE Unit A105,Seattle,WA,98125,507500,2,2.0,Jackson Park,1545,218742,1975,,328,606,Sold,,,https://www.redfin.com/WA/Seattle/13730-15th-Ave-NE-98125/unit-A105/home/39536,NWMLS,1905074,N,Y,47.7297098,-122.311487
PAST SALE,May-18-2022,Condo/Co-op,14300 32nd Ave NE #109,Seattle,WA,98125,275000,1,1.0,Lake City,591,,1986,,465,272,Sold,,,https://www.redfin.com/WA/Seattle/14300-32nd-Ave-NE-98125/unit-109/home/12305148,NWMLS,1914218,N,Y,47.7322098,-122.2934071
PAST SALE,May-17-2022,Condo/Co-op,413 NE 70th St #225,Seattle,WA,98115,800000,2,2.0,Green Lake,1176,1176,2007,,680,737,Sold,,,https://www.redfin.com/WA/Seattle/413-NE-70th-St-98115/unit-225/home/17382473,NWMLS,1920051,N,Y,47.6789754,-122.3241247
PAST SALE,May-19-2022,Single Family Residential,310 NE 85th St Unit C,Seattle,WA,98115,819000,2,2.0,Maple Leaf,1080,1204,2022,,758,11,Sold,,,https://www.redfin.com/WA/Seattle/310-NE-85th-St-98115/unit-C/home/178657085,NWMLS,1903061,N,Y,47.6906316,-122.3251666
PAST SALE,May-20-2022,Townhouse,7413 A 4th Ave NE,Seattle,WA,98115,950000,3,3.5,Green Lake,1430,1299,2008,,664,,Sold,,,https://www.redfin.com/WA/Seattle/7413-4th-Ave-NE-98115/unit-A/home/21470987,NWMLS,1914728,N,Y,47.6822148,-122.325766
PAST SALE,May-20-2022,Single Family Residential,12724 Roosevelt Way NE,Seattle,WA,98125,605000,2,1.0,Pinehurst,700,5700,1950,,864,,Sold,,,https://www.redfin.com/WA/Seattle/12724-Roosevelt-Way-NE-98125/home/115889,NWMLS,1917986,N,Y,47.7221868,-122.3215415
PAST SALE,May-20-2022,Single Family Residential,902 NE 115th St,Seattle,WA,98125,775000,2,1.0,Pinehurst,1010,6592,1947,,767,,Sold,,,https://www.redfin.com/WA/Seattle/902-NE-115th-St-98125/home/106430,NWMLS,1917951,N,Y,47.7124133,-122.3190438
PAST SALE,May-17-2022,Condo/Co-op,323 16th Ave E #204,Seattle,WA,98112,392000,1,1.0,Capitol Hill,652,,1929,,601,491,Sold,,,https://www.redfin.com/WA/Seattle/323-16th-Ave-E-98112/unit-204/home/27744,NWMLS,1918240,N,Y,47.6212059,-122.3117481
PAST SALE,May-20-2022,Single Family Residential,2415 E Boston St Unit C,Seattle,WA,98112,885000,2,2.0,Montlake,1091,678,2022,,811,13,Sold,,,https://www.redfin.com/WA/Seattle/2415-E-Boston-St-98112/unit-C/home/179135528,NWMLS,1921287,N,Y,47.6385286,-122.301077
PAST SALE,May-19-2022,Townhouse,1717 18th Ave Unit A,Seattle,WA,98122,900000,3,2.5,Capitol Hill,1510,1245,2006,,596,,Sold,,,https://www.redfin.com/WA/Seattle/1717-18th-Ave-98122/unit-A/home/12090522,NWMLS,1915985,N,Y,47.6169431,-122.3092821
PAST SALE,May-18-2022,Condo/Co-op,1101 17th Ave #306,Seattle,WA,98122,298000,1,1.0,Capitol Hill,485,,1928,,614,465,Sold,,,https://www.redfin.com/WA/Seattle/1101-17th-Ave-98122/unit-306/home/48148,NWMLS,1833201,N,Y,47.611706,-122.3106335
PAST SALE,May-17-2022,Condo/Co-op,2222 NW 58th St #302,Seattle,WA,98107,560000,2,2.0,Ballard,1011,4998,1991,,554,575,Sold,,,https://www.redfin.com/WA/Seattle/2222-NW-58th-St-98107/unit-302/home/56935,NWMLS,1905156,N,Y,47.6711197,-122.3858036
PAST SALE,May-18-2022,Condo/Co-op,6110 24th Ave NW #303,Seattle,WA,98107,380000,1,1.0,Ballard,661,,1968,,575,331,Sold,,,https://www.redfin.com/WA/Seattle/6110-24th-Ave-NW-98107/unit-303/home/9448,NWMLS,1915862,N,Y,47.6735955,-122.3871271
PAST SALE,May-20-2022,Condo/Co-op,505 W Roy St #402,Seattle,WA,98119,728206,2,2.0,Queen Anne,1137,,1982,,640,636,Sold,,,https://www.redfin.com/WA/Seattle/505-W-Roy-St-98119/unit-402/home/48262,NWMLS,1938623,N,Y,47.625623,-122.3637036
PAST SALE,May-20-2022,Condo/Co-op,919 2nd Ave W #407,Seattle,WA,98119,280000,1,1.0,Queen Anne,600,,1960,,467,553,Sold,,,https://www.redfin.com/WA/Seattle/919-2-W407-AVE-W-98119/unit-407/home/175989305,NWMLS,1898719,N,Y,47.627416,-122.359647
PAST SALE,May-17-2022,Condo/Co-op,3333 Wallingford Ave N #301,Seattle,WA,98103,459000,1,1.0,Wallingford,689,,2005,,666,355,Sold,,,https://www.redfin.com/WA/Seattle/3333-Wallingford-Ave-N-98103/unit-301/home/12093130,NWMLS,1914609,N,Y,47.6478746,-122.3371569
PAST SALE,May-20-2022,Condo/Co-op,655 Crockett St Unit A107,Seattle,WA,98109,733000,2,2.0,Seattle,1060,,2004,,692,694,Sold,,,https://www.redfin.com/WA/Seattle/655-Crockett-St-98109/unit-A107/home/2064434,NWMLS,1897608,N,Y,47.6372788,-122.3439708
PAST SALE,May-20-2022,Condo/Co-op,655 Crockett St Unit B204,Seattle,WA,98109,440000,1,1.0,Queen Anne,526,,2004,,837,343,Sold,,,https://www.redfin.com/WA/Seattle/655-Crockett-St-98109/unit-B204/home/2069716,NWMLS,1924302,N,Y,47.6372788,-122.3439708
PAST SALE,May-19-2022,Vacant Land,8310 Seward Park Ave S,Seattle,WA,98118,250000,,,Seward Park,,7510,,,,,Sold,,,https://www.redfin.com/WA/Seattle/8310-Seward-Park-Ave-S-98118/home/179273143,NWMLS,1925237,N,Y,47.5291601,-122.2659897
PAST SALE,May-20-2022,Townhouse,3609 Interlake Ave N Unit B,Seattle,WA,98103,975000,3,2.5,Fremont,1720,1078,2008,,567,,Sold,,,https://www.redfin.com/WA/Seattle/3609-Interlake-Ave-N-98103/unit-B/home/18659918,NWMLS,1919249,N,Y,47.6509132,-122.3415759
PAST SALE,May-18-2022,Single Family Residential,1315 NW 80th St,Seattle,WA,98117,915000,2,1.0,Whittier,940,4910,1942,,973,,Sold,,,https://www.redfin.com/WA/Seattle/1315-NW-80th-St-98117/home/497685,NWMLS,1924090,N,Y,47.6866995,-122.3735765
PAST SALE,May-17-2022,Single Family Residential,10030 Ashworth Ave N,Seattle,WA,98133,996000,3,2.0,Licton Springs,2960,4000,1940,,336,,Sold,,,https://www.redfin.com/WA/Seattle/10030-Ashworth-Ave-N-98133/home/104379,NWMLS,1920610,N,Y,47.7022674,-122.3389997
PAST SALE,May-17-2022,Condo/Co-op,1819 N 107th St #103,Seattle,WA,98133,455000,2,2.0,Northgate,1073,,1979,,424,385,Sold,,,https://www.redfin.com/WA/Seattle/1819-N-107th-St-98133/unit-103/home/178974890,NWMLS,1913217,N,Y,47.7066264,-122.3346168
PAST SALE,May-18-2022,Townhouse,926 N 96th St,Seattle,WA,98103,725000,3,2.5,Green Lake,1660,1441,2011,,437,,Sold,,,https://www.redfin.com/WA/Seattle/926-N-96th-St-98103/home/40080074,NWMLS,1922772,N,Y,47.698887,-122.345993
PAST SALE,May-17-2022,Single Family Residential,411 NW 92nd St,Seattle,WA,98117,945000,3,1.0,Greenwood,1060,6300,1924,,892,,Sold,,,https://www.redfin.com/WA/Seattle/411-NW-92nd-St-98117/home/100332,NWMLS,1909194,N,Y,47.6958603,-122.3625816
PAST SALE,May-18-2022,Single Family Residential,9512 Evanston Ave N #1,Seattle,WA,98103,745000,2,2.5,Greenwood,1114,1406,2022,,669,35,Sold,,,https://www.redfin.com/WA/Seattle/9512-Evanston-Ave-N-98103/unit-1/home/179141085,NWMLS,1910547,N,Y,47.6982269,-122.3507257
PAST SALE,May-17-2022,Townhouse,9413 A Roosevelt Way NE,Seattle,WA,98115,755000,2,2.5,Maple Leaf,1201,855,2022,,629,,Sold,,,https://www.redfin.com/WA/Seattle/9413-A-Roosevelt-Way-NE-98115/home/179087591,NWMLS,1879636,N,Y,47.6970855,-122.3175791
PAST SALE,May-19-2022,Condo/Co-op,1740 NE 86th St #311,Seattle,WA,98115,425000,2,1.0,Maple Leaf,876,,1982,,485,442,Sold,,,https://www.redfin.com/WA/Seattle/1740-NE-86th-St-98115/unit-311/home/29949,NWMLS,1916229,N,Y,47.6914368,-122.307434
PAST SALE,May-19-2022,Single Family Residential,1516 NE 70th St,Seattle,WA,98115,790000,2,1.0,Ravenna,1280,3060,1909,,617,,Sold,,,https://www.redfin.com/WA/Seattle/1516-NE-70th-St-98115/home/311417,NWMLS,1922961,N,Y,47.6795785,-122.3111205
PAST SALE,May-17-2022,Townhouse,14527 1st Ave NE Unit A,Shoreline,WA,98155,948880,3,3.5,Shoreline,2148,,2021,,442,180,Sold,,,https://www.redfin.com/WA/Shoreline/14527-1st-Ave-NE-98133/unit-A/home/175701111,NWMLS,1808772,N,Y,47.7349466,-122.3291971
PAST SALE,May-19-2022,Single Family Residential,115 N 105th St,Seattle,WA,98133,850000,5,3.0,Greenwood,1480,11000,1924,,574,,Sold,,,https://www.redfin.com/WA/Seattle/115-N-105th-St-98133/home/95331,NWMLS,1921149,N,Y,47.7048862,-122.3574929
PAST SALE,May-17-2022,Condo/Co-op,308 E Republican St #915,Seattle,WA,98102,304000,0,,Capitol Hill,939,,1961,,324,1089,Sold,,,https://www.redfin.com/WA/Seattle/308-E-Republican-St-98102/unit-915/home/176015052,NWMLS,1936925,N,Y,47.6233526,-122.3275719
PAST SALE,May-19-2022,Townhouse,236 26th Ave E,Seattle,WA,98112,855000,2,2.0,Madison Valley,1290,720,2017,,663,,Sold,,,https://www.redfin.com/WA/Seattle/236-26th-Ave-E-98112/home/109972210,NWMLS,1919736,N,Y,47.6211923,-122.2983308
PAST SALE,May-19-2022,Condo/Co-op,1708 Melrose Ave #502,Seattle,WA,98122,560000,2,1.0,Capitol Hill,823,,1994,,680,785,Sold,,,https://www.redfin.com/WA/Seattle/1708-Melrose-Ave-98122/unit-502/home/49607,NWMLS,1909255,N,Y,47.6173771,-122.3275756
PAST SALE,May-19-2022,Single Family Residential,1438 22nd Ave,Seattle,WA,98122,950000,2,1.0,Madrona,1080,4898,1905,,880,,Sold,,,https://www.redfin.com/WA/Seattle/1438-22nd-Ave-98122/home/143127,NWMLS,1905064,N,Y,47.6141028,-122.3033306
PAST SALE,May-20-2022,Condo/Co-op,1729 18th Ave #402,Seattle,WA,98122,650000,2,2.0,Capitol Hill,916,,1981,,710,714,Sold,,,https://www.redfin.com/WA/Seattle/1729-18th-Ave-98122/unit-402/home/178796343,NWMLS,1908370,N,Y,47.6172782,-122.3091322
PAST SALE,May-20-2022,Condo/Co-op,1729 18th Ave #202,Seattle,WA,98122,600000,2,2.0,Capitol Hill,916,,1981,,655,606,Sold,,,https://www.redfin.com/WA/Seattle/1729-18th-Ave-98122/unit-202/home/178796341,NWMLS,1908366,N,Y,47.6172782,-122.3091322
PAST SALE,May-23-2022,Townhouse,1337 E Denny Way,Seattle,WA,98122,850000,2,2.0,Capitol Hill,1172,621,2022,,725,,Sold,,,https://www.redfin.com/WA/Seattle/1337-E-Denny-Way-98122/home/178973855,NWMLS,1902998,N,Y,47.6186145,-122.3144372
PAST SALE,May-19-2022,Condo/Co-op,416 E Roy St Unit K,Seattle,WA,98102,467000,1,1.0,Capitol Hill,712,,1910,,656,482,Sold,,,https://www.redfin.com/WA/Seattle/416-E-Roy-St-98102/unit-K/home/29406,NWMLS,1922703,N,Y,47.6253131,-122.3258277
PAST SALE,May-20-2022,Single Family Residential,2302 E Pine St,Seattle,WA,98122,868000,5,2.0,Central Area,2150,2460,1922,,404,,Sold,,,https://www.redfin.com/WA/Seattle/2302-E-Pine-St-98122/home/147811,NWMLS,1903114,N,Y,47.6154984,-122.302415
PAST SALE,May-19-2022,Condo/Co-op,3104 Western Ave #420,Seattle,WA,98121,734000,2,2.0,Belltown,1123,,2008,,654,861,Sold,,,https://www.redfin.com/WA/Seattle/3104-Western-Ave-98121/unit-420/home/17382016,NWMLS,1902309,N,Y,47.6182774,-122.3564023
PAST SALE,May-20-2022,Condo/Co-op,2801 1st Ave #414,Seattle,WA,98121,550000,1,1.0,Belltown,721,,2000,,763,526,Sold,,,https://www.redfin.com/WA/Seattle/2801-1st-Ave-98121/unit-414/home/39529,NWMLS,1912879,N,Y,47.6163521,-122.3521048
PAST SALE,May-20-2022,Condo/Co-op,2929 1st Ave #519,Seattle,WA,98121,749000,2,2.0,Belltown,1114,1114,2000,,672,1101,Sold,,,https://www.redfin.com/WA/Seattle/2929-1st-Ave-98121/unit-519/home/14540,NWMLS,1920003,N,Y,47.617218,-122.3536221
