SALE TYPE,SOLD DATE,PROPERTY TYPE,ADDRESS,CITY,STATE OR PROVINCE,ZIP OR POSTAL CODE,PRICE,BEDS,BATHS,LOCATION,SQUARE FEET,LOT SIZE,YEAR BUILT,DAYS ON MARKET,$/SQUARE FEET,HOA/MONTH,STATUS,NEXT OPEN HOUSE START TIME,NEXT OPEN HOUSE END TIME,URL (SEE https://www.redfin.com/buy-a-home/comparative-market-analysis FOR INFO ON PRICING),SOURCE,MLS#,FAVORITE,INTERESTED,LATITUDE,LONGITUDE
PAST SALE,May-11-2022,Condo/Co-op,2550 Thorndyke Ave W #403,Seattle,WA,98199,499000,2,2.0,Magnolia,1010,,1969,,494,559,Sold,,,https://www.redfin.com/WA/Seattle/2550-Thorndyke-Ave-W-98199/unit-403/home/7948,NWMLS,1911267,N,Y,47.6424625,-122.3844688
PAST SALE,May-11-2022,Single Family Residential,625 113th St E,Tacoma,WA,98445,410000,3,3.0,Tacoma,1744,1972,2006,,235,118,Sold,,,https://www.redfin.com/WA/Tacoma/625-113th-St-E-98445/home/3039288,NWMLS,1907900,N,Y,47.1543165,-122.422761
PAST SALE,May-9-2022,Townhouse,10303 Evanston Ave N,Seattle,WA,98133,814500,3,3.5,Greenwood,1350,1206,2003,,603,,Sold,,,https://www.redfin.com/WA/Seattle/10303-Evanston-Ave-N-98133/home/98915,NWMLS,1913996,N,Y,47.7037669,-122.3510177
PAST SALE,May-11-2022,Single Family Residential,202 117th St E,Tacoma,WA,98445,475000,3,2.0,Parkland,1282,9600,1988,,371,17,Sold,,,https://www.redfin.com/WA/Tacoma/202-117th-St-E-98445/home/2726132,NWMLS,1912941,N,Y,47.150238,-122.4288023
PAST SALE,May-6-2022,Condo/Co-op,2349 Harbor Ave SW #705,Seattle,WA,98126,870000,2,2.0,Alki,1487,,1990,,585,777,Sold,,,https://www.redfin.com/WA/Seattle/2349-Harbor-Ave-SW-98126/unit-705/home/1606,NWMLS,1912069,N,Y,47.5814155,-122.3751064
PAST SALE,May-6-2022,Single Family Residential,1224 N Fife St,Tacoma,WA,98406,575000,2,1.0,Tacoma,1672,5000,1904,,344,,Sold,,,https://www.redfin.com/WA/Tacoma/1224-N-Fife-St-98406/home/2743648,NWMLS,1902696,N,Y,47.2619424,-122.4707664
PAST SALE,May-6-2022,Single Family Residential,1301 N Heatherwood W,Tacoma,WA,98406,700000,3,2.5,North Tacoma,2382,9600,1951,,294,,Sold,,,https://www.redfin.com/WA/Tacoma/1301-N-Heatherwood-W-98406/home/2922605,NWMLS,1895712,N,Y,47.2624445,-122.5333261
PAST SALE,May-9-2022,Single Family Residential,3800 Courtland Pl S,Seattle,WA,98118,950000,4,3.0,Mt Baker,1640,4080,1995,,579,,Sold,,,https://www.redfin.com/WA/Seattle/3800-Courtland-Pl-S-98118/home/171796,NWMLS,1901505,N,Y,47.5696274,-122.2869338
PAST SALE,May-10-2022,Condo/Co-op,4806 42nd Ave SW #5,Seattle,WA,98116,577000,2,1.5,West Seattle,900,,1980,,641,250,Sold,,,https://www.redfin.com/WA/Seattle/4806-42nd-Ave-SW-98116/unit-5/home/16406,NWMLS,1913005,N,Y,47.5590306,-122.3851576
PAST SALE,May-6-2022,Single Family Residential,2209 149th St E,Tacoma,WA,98445,535000,3,2.5,Parkland,1586,7004,1989,,337,,Sold,,,https://www.redfin.com/WA/Parkland/2209-149th-St-E-98445/home/2741704,NWMLS,1912330,N,Y,47.1216535,-122.3996675
PAST SALE,May-11-2022,Single Family Residential,7038 E B St,Tacoma,WA,98404,420000,3,2.0,Tacoma,1332,5000,1937,,315,,Sold,,,https://www.redfin.com/WA/Tacoma/7038-E-B-St-98404/home/125641645,NWMLS,1902228,N,Y,47.1924976,-122.4290266
PAST SALE,May-6-2022,Single Family Residential,2334 NE 92nd St,Seattle,WA,98115,995000,4,2.0,Wedgwood,2100,6160,1955,,474,,Sold,,,https://www.redfin.com/WA/Seattle/2334-NE-92nd-St-98115/home/317874,NWMLS,1919746,N,Y,47.6958498,-122.302698
PAST SALE,May-10-2022,Townhouse,308 N 74th St Unit A,Seattle,WA,98103,805000,2,2.5,Greenwood,1140,789,2018,,706,,Sold,,,https://www.redfin.com/WA/Seattle/308-N-74th-St-98103/unit-A/home/168840865,NWMLS,1915224,N,Y,47.682823,-122.3548325
PAST SALE,May-5-2022,Single Family Residential,17217 25th Avenue Ct E,Tacoma,WA,98445,520000,3,2.5,Tacoma,1695,5877,1999,,307,25,Sold,,,https://www.redfin.com/WA/Tacoma/17217-25th-Ave-Ct-E-98445/home/2874157,NWMLS,1905099,N,Y,47.0998141,-122.3949757
PAST SALE,May-10-2022,Condo/Co-op,15 Prospect St Unit B202,Seattle,WA,98109,599000,2,1.0,Queen Anne,752,,1990,,797,600,Sold,,,https://www.redfin.com/WA/Seattle/15-Prospect-St-98109/unit-B202/home/12170161,NWMLS,1918293,N,Y,47.6285577,-122.3559608
PAST SALE,May-6-2022,Condo/Co-op,2327 Yale Ave E Unit G,Seattle,WA,98102,535000,1,1.5,Eastlake,795,,1985,,673,423,Sold,,,https://www.redfin.com/WA/Seattle/2327-Yale-Ave-E-98102/unit-G/home/40382,NWMLS,1909850,N,Y,47.6405739,-122.3274311
PAST SALE,May-6-2022,Single Family Residential,3025 N Vassault St,Tacoma,WA,98407,605000,3,2.5,Tacoma,1542,7500,1978,,392,,Sold,,,https://www.redfin.com/WA/Tacoma/3025-N-Vassault-St-98407/home/2729252,NWMLS,1904979,N,Y,47.2753779,-122.5203343
PAST SALE,May-10-2022,Single Family Residential,12718 28th Ave E,Tacoma,WA,98445,460000,2,1.5,Tacoma,1016,96703,1943,,453,,Sold,,,https://www.redfin.com/WA/Tacoma/12718-28th-Ave-E-98445/home/2840198,NWMLS,1911879,N,Y,47.1407696,-122.3920786
PAST SALE,May-11-2022,Condo/Co-op,1106 E Thomas St #3,Seattle,WA,98102,520000,1,1.0,Capitol Hill,752,964,1900,,691,515,Sold,,,https://www.redfin.com/WA/Seattle/1106-E-Thomas-St-98102/unit-3/home/28464,NWMLS,1908859,N,Y,47.6213202,-122.31738
PAST SALE,May-9-2022,Single Family Residential,240 S 78th St,Tacoma,WA,98408,510000,4,2.5,Fern Hill,1559,7700,2012,,327,,Sold,,,https://www.redfin.com/WA/Tacoma/240-S-78th-St-98408/home/2967249,NWMLS,1913177,N,Y,47.1858002,-122.4359859
PAST SALE,May-6-2022,Townhouse,7114 California Ave SW Unit C,Seattle,WA,98136,610000,2,2.0,Gatewood,1030,1007,2006,,592,,Sold,,,https://www.redfin.com/WA/Seattle/7114-California-Ave-SW-98136/unit-C/home/8188044,NWMLS,1914437,N,Y,47.5396446,-122.3866112
PAST SALE,May-9-2022,Single Family Residential,3053 33rd Ave SW,Seattle,WA,98126,606000,3,1.0,West Seattle,2380,5000,1917,,255,,Sold,,,https://www.redfin.com/WA/Seattle/3053-33rd-Ave-SW-98126/home/150848,NWMLS,1888253,N,Y,47.5758559,-122.3742592
PAST SALE,May-10-2022,Single Family Residential,3024 SW Andover St,Seattle,WA,98126,799000,2,2.0,West Seattle,2180,5600,1954,,367,,Sold,,,https://www.redfin.com/WA/Seattle/3024-SW-Andover-St-98126/home/159774,NWMLS,1915888,N,Y,47.5681355,-122.3719277
PAST SALE,May-10-2022,Townhouse,6534 A 42nd Ave SW,Seattle,WA,98136,920000,3,2.5,West Seattle,1890,1599,2012,,487,,Sold,,,https://www.redfin.com/WA/Seattle/6534-42nd-Ave-SW-98136/unit-A/home/45451355,NWMLS,1916294,N,Y,47.543691,-122.3852996
PAST SALE,May-11-2022,Condo/Co-op,1729 18th Ave #301,Seattle,WA,98122,609995,2,2.0,Capitol Hill,916,,1981,,666,660,Sold,,,https://www.redfin.com/WA/Seattle/1729-18th-Ave-98122/unit-301/home/178984712,NWMLS,1913910,N,Y,47.6172782,-122.3091322
PAST SALE,May-5-2022,Single Family Residential,4839 S Graham St,Seattle,WA,98118,907000,3,2.0,Seward Park,1793,7675,1958,,506,,Sold,,,https://www.redfin.com/WA/Seattle/4839-S-Graham-St-98118/home/491044,NWMLS,1929026,N,Y,47.5457907,-122.2709773
PAST SALE,May-6-2022,Townhouse,2421 S Plum St,Seattle,WA,98144,803000,3,2.5,Seattle,1504,,2022,,534,200,Sold,,,https://www.redfin.com/WA/Seattle/2421-S-Plum-St-98144/home/177880627,NWMLS,1879926,N,Y,47.5853266,-122.3013326
PAST SALE,May-6-2022,Townhouse,2811 S Columbian Way,Seattle,WA,98108,775000,3,2.0,Columbia City,1510,1416,2006,,513,271,Sold,,,https://www.redfin.com/WA/Seattle/2811-S-Columbian-Way-98108/home/8187297,NWMLS,1901533,N,Y,47.5618606,-122.2965057
PAST SALE,May-11-2022,Single Family Residential,5108 S Findlay St Unit B,Seattle,WA,98118,760000,2,2.5,Seward Park,1108,1693,2022,,686,1,Sold,,,https://www.redfin.com/WA/Seattle/5108-S-Findlay-St-98118/unit-B/home/179056060,NWMLS,1916343,N,Y,47.5520438,-122.2694405
PAST SALE,May-11-2022,Single Family Residential,2131 S Graham St,Seattle,WA,98108,610000,4,2.0,Beacon Hill,2800,6320,1953,,218,,Sold,,,https://www.redfin.com/WA/Seattle/2131-S-Graham-St-98108/home/481267,NWMLS,1924190,N,Y,47.5463166,-122.3052992
PAST SALE,May-6-2022,Condo/Co-op,5601 California Ave SW #201,Seattle,WA,98136,550000,2,2.0,Seaview,1040,,1978,,529,538,Sold,,,https://www.redfin.com/WA/Seattle/5601-California-Ave-SW-98136/unit-201/home/44546,NWMLS,1912348,N,Y,47.5519145,-122.3875458
PAST SALE,May-10-2022,Townhouse,9045 18th Ave SW Unit B,Seattle,WA,98106,760000,3,2.5,Westwood,1880,1250,2019,,404,,Sold,,,https://www.redfin.com/WA/Seattle/9045-18th-Ave-SW-98106/unit-B/home/476162,NWMLS,1914596,N,Y,47.521579,-122.358321
PAST SALE,May-6-2022,Condo/Co-op,4907 Main St #522,Tacoma,WA,98407,706180,2,2.0,North Tacoma,1296,,2022,,545,454,Sold,,,https://www.redfin.com/WA/Tacoma/4907-Main-St-98407/unit-522/home/178471953,NWMLS,1930319,N,Y,47.2966646,-122.5005707
PAST SALE,May-9-2022,Single Family Residential,4606 N Waterview St,Tacoma,WA,98407,625000,3,3.0,North Tacoma,1737,22020,1945,,360,,Sold,,,https://www.redfin.com/WA/Tacoma/4606-N-Waterview-St-98407/home/169624441,NWMLS,1896234,N,Y,47.2909365,-122.4954974
PAST SALE,May-9-2022,Single Family Residential,5108 N 38th St,Tacoma,WA,98407,650000,4,2.0,North Tacoma,1373,5850,1976,,473,,Sold,,,https://www.redfin.com/WA/Tacoma/5108-N-38th-St-98407/home/2767480,NWMLS,1913308,N,Y,47.2832614,-122.5056735
PAST SALE,May-10-2022,Townhouse,206 26th Ave S #206,Seattle,WA,98144,766000,3,3.5,Central Area,1328,1328,2000,,577,395,Sold,,,https://www.redfin.com/WA/Seattle/206-26th-Ave-S-98144/unit-206/home/177202878,NWMLS,1914578,N,Y,47.6006104,-122.2987363
PAST SALE,May-9-2022,Condo/Co-op,108 5th Ave S #704,Seattle,WA,98104,389000,1,1.0,International District,585,,2001,,665,394,Sold,,,https://www.redfin.com/WA/Seattle/108-5th-Ave-S-98104/unit-704/home/12093516,NWMLS,1900875,N,Y,47.6013297,-122.3272284
PAST SALE,May-9-2022,Single Family Residential,3701 Larchmont Ave NE,Tacoma,WA,98422,825000,4,3.0,Northshore,2582,9375,1986,,320,,Sold,,,https://www.redfin.com/WA/Tacoma/3701-Larchmont-Ave-NE-98422/home/2937944,NWMLS,1891768,N,Y,47.290451,-122.399975
PAST SALE,May-10-2022,Single Family Residential,5120 34th St NE,Tacoma,WA,98422,580000,3,1.5,Ne Tacoma,1582,5258,1978,,367,,Sold,,,https://www.redfin.com/WA/Tacoma/5120-34th-St-NE-98422/home/2754416,NWMLS,1916039,N,Y,47.286907,-122.3779374
PAST SALE,May-10-2022,Multi-Family (2-4 Unit),3709 -3711 S Manitou Way,Tacoma,WA,98409,499000,4,2.0,Manitou,1344,5227,1966,,371,,Sold,,,https://www.redfin.com/WA/Tacoma/3709-S-Manitou-Way-98409/home/2465493,NWMLS,1905461,N,Y,47.224342,-122.49197
PAST SALE,May-5-2022,Single Family Residential,6209 S Oakes St,Tacoma,WA,98409,454500,4,2.0,South Tacoma,1752,6000,1910,,259,,Sold,,,https://www.redfin.com/WA/Tacoma/6209-S-Oakes-St-98409/home/3042723,NWMLS,1906344,N,Y,47.200647,-122.4719912
PAST SALE,May-9-2022,Single Family Residential,15018 12th Ave E,Tacoma,WA,98445,470000,3,2.0,Parkland,1608,10005,1968,,292,,Sold,,,https://www.redfin.com/WA/Tacoma/15018-12th-Ave-E-98445/home/2983396,NWMLS,1906720,N,Y,47.1197902,-122.4137292
PAST SALE,May-6-2022,Single Family Residential,2309 167TH Street Ct E,Tacoma,WA,98445,610000,4,2.5,Spanaway,2680,6000,2014,,228,25,Sold,,,https://www.redfin.com/WA/Tacoma/2309-167th-St-Ct-E-98445/home/22755698,NWMLS,1895044,N,Y,47.104601,-122.3974011
PAST SALE,May-5-2022,Townhouse,814 NW 54th St Unit C,Seattle,WA,98107,700000,2,2.0,Ballard,1046,750,2022,,669,,Sold,,,https://www.redfin.com/WA/Seattle/814-NW-54th-St-98107/unit-C/home/178742748,NWMLS,1905026,N,Y,47.6681307,-122.3669834
PAST SALE,May-5-2022,Single Family Residential,6008 Sycamore Ave NW,Seattle,WA,98107,960000,3,1.0,Phinney Ridge,2780,3500,1912,,345,,Sold,,,https://www.redfin.com/WA/Seattle/6008-Sycamore-Ave-NW-98107/home/298548,NWMLS,1913929,N,Y,47.6726579,-122.3582429
PAST SALE,May-10-2022,Townhouse,919 NW 56th St Unit C,Seattle,WA,98107,809950,2,2.0,Ballard,1244,675,2022,,651,,Sold,,,https://www.redfin.com/WA/Seattle/919-NW-56th-St-98107/unit-C/home/179158764,NWMLS,1921861,N,Y,47.6692589,-122.3695424
PAST SALE,May-9-2022,Condo/Co-op,1545 NW 57th St #428,Seattle,WA,98107,325000,1,1.0,Ballard,512,,2003,,635,327,Sold,,,https://www.redfin.com/WA/Seattle/1545-NW-57th-St-98107/unit-428/home/146980774,NWMLS,1905983,N,Y,47.6698656,-122.3783251
PAST SALE,May-6-2022,Single Family Residential,937 E 51st St,Tacoma,WA,98404,475000,2,1.0,East Tacoma,1240,7200,1959,,383,,Sold,,,https://www.redfin.com/WA/Tacoma/937-E-51st-St-98404/home/2839260,NWMLS,1914738,N,Y,47.2110327,-122.4161513
PAST SALE,May-9-2022,Single Family Residential,921 E Morton St,Tacoma,WA,98404,390000,3,1.0,McKinley,1360,4000,1908,,287,,Sold,,,https://www.redfin.com/WA/Tacoma/921-E-Morton-St-98404/home/2717818,NWMLS,1907507,N,Y,47.2290958,-122.4179034
PAST SALE,May-10-2022,Single Family Residential,2022 E Wright Ave,Tacoma,WA,98404,343000,3,1.0,Tacoma,954,6500,1983,,360,,Sold,,,https://www.redfin.com/WA/Tacoma/2022-E-Wright-Ave-98404/home/2845375,NWMLS,1890177,N,Y,47.2342646,-122.401974
PAST SALE,May-9-2022,Multi-Family (2-4 Unit),4621 E C St,Tacoma,WA,98404,505000,4,2.0,Tacoma,1579,10700,1949,,320,,Sold,,,https://www.redfin.com/WA/Tacoma/4621-E-C-St-98404/unit-A-B/home/2961971,NWMLS,1904836,N,Y,47.2144473,-122.4277836
PAST SALE,May-10-2022,Multi-Family (2-4 Unit),2040 E Gregory St,Tacoma,WA,98404,440000,4,2.0,East Tacoma,1508,6600,1978,,292,,Sold,,,https://www.redfin.com/WA/Tacoma/2040-E-Gregory-St-98404/home/2948691,NWMLS,1916387,N,Y,47.2270657,-122.39987
PAST SALE,May-6-2022,Condo/Co-op,2510 6th Ave #2307,Seattle,WA,98121,757000,1,1.0,Denny Triangle,564,,2021,,1342,522,Sold,,,https://www.redfin.com/WA/Seattle/2510-6th-Ave-98121/unit-2307/home/178982478,NWMLS,1912978,N,Y,47.6182832,-122.344644
PAST SALE,May-6-2022,Condo/Co-op,2414 1st Ave #405,Seattle,WA,98121,550000,2,1.0,Belltown,778,,1994,,707,696,Sold,,,https://www.redfin.com/WA/Seattle/2414-1st-Ave-98121/unit-405/home/23682,NWMLS,1930024,N,Y,47.6146099,-122.3481079
PAST SALE,May-9-2022,Condo/Co-op,1920 4th Ave #1610,Seattle,WA,98101,750000,1,1.5,Downtown,910,,2010,,824,798,Sold,,,https://www.redfin.com/WA/Seattle/1920-4th-Ave-98101/unit-1610/home/28624155,NWMLS,1889537,N,Y,47.6130983,-122.3394215
PAST SALE,May-10-2022,Condo/Co-op,2415 2nd Ave #335,Seattle,WA,98121,420000,1,1.0,Belltown,532,,1994,,789,493,Sold,,,https://www.redfin.com/WA/Seattle/2415-2nd-Ave-98121/unit-335/home/35392,NWMLS,1913112,N,Y,47.6149385,-122.3476092
PAST SALE,May-10-2022,Condo/Co-op,2510 6th Ave #2103,Seattle,WA,98121,753000,1,1.0,Denny Triangle,684,,2021,,1101,633,Sold,,,https://www.redfin.com/WA/Seattle/2510-6th-Ave-98121/unit-2103/home/178794270,NWMLS,1908730,N,Y,47.6182832,-122.344644
PAST SALE,May-9-2022,Condo/Co-op,1808 Minor Ave #1700,Seattle,WA,98101,679000,1,1.0,Denny Triangle,688,,2020,,987,588,Sold,,,https://www.redfin.com/WA/Seattle/1808-Minor-Ave-98101/unit-1700/home/172710437,NWMLS,1902821,N,Y,47.6169899,-122.3305816
PAST SALE,May-9-2022,Condo/Co-op,1221 Minor Ave #402,Seattle,WA,98101,369900,1,1.0,First Hill,609,,1960,,607,441,Sold,,,https://www.redfin.com/WA/Seattle/1221-Minor-Ave-98101/unit-402/home/2072631,NWMLS,1908532,N,Y,47.6113766,-122.3257577
PAST SALE,May-9-2022,Condo/Co-op,700 E Denny Way #406,Seattle,WA,98122,410000,1,1.0,Capitol Hill,502,,2000,,817,310,Sold,,,https://www.redfin.com/WA/Seattle/700-E-Denny-Way-98122/unit-406/home/2097736,NWMLS,1890723,N,Y,47.6188804,-122.3231406
PAST SALE,May-10-2022,Condo/Co-op,2524 Boyer Ave E #326,Seattle,WA,98102,560000,2,1.0,Montlake,721,,1958,,777,449,Sold,,,https://www.redfin.com/WA/Seattle/2524-Boyer-Ave-E-98102/unit-326/home/73393,NWMLS,1893699,N,Y,47.6424433,-122.3150101
PAST SALE,May-10-2022,Townhouse,829 N 145th Ct,Shoreline,WA,98133,610000,2,2.0,Shoreline,1530,1392,2003,,399,,Sold,,,https://www.redfin.com/WA/Seattle/829-N-145th-Ct-98133/home/176030941,NWMLS,1905291,N,Y,47.7349446,-122.3468289
PAST SALE,May-9-2022,Single Family Residential,1415 N Oakes St,Tacoma,WA,98406,850000,3,2.0,Ups,2214,3750,1912,,384,,Sold,,,https://www.redfin.com/WA/Tacoma/1415-N-Oakes-St-98406/home/2743524,NWMLS,1916342,N,Y,47.2629737,-122.4712721
PAST SALE,May-5-2022,Single Family Residential,4505 S 7th St,Tacoma,WA,98405,453000,2,1.0,Central Tacoma,870,6000,1941,,521,,Sold,,,https://www.redfin.com/WA/Tacoma/4505-S-7th-St-98405/home/2798597,NWMLS,1916746,N,Y,47.2546515,-122.4983336
PAST SALE,May-9-2022,Single Family Residential,3212 N Stevens St,Tacoma,WA,98407,555000,3,1.5,North Tacoma,1168,4000,1910,,475,,Sold,,,https://www.redfin.com/WA/Tacoma/3212-N-Stevens-St-98407/home/2822214,NWMLS,1897075,N,Y,47.2773748,-122.496452
PAST SALE,May-10-2022,Single Family Residential,4814 N 28th St,Tacoma,WA,98407,840000,4,2.0,North Tacoma,2276,6000,1944,,369,,Sold,,,https://www.redfin.com/WA/Tacoma/4814-N-28th-St-98407/home/2732961,NWMLS,1910581,N,Y,47.2728442,-122.5016354
PAST SALE,May-10-2022,Single Family Residential,5417 S 11th St,Tacoma,WA,98465,600000,3,2.0,Tacoma,1404,5500,1970,,427,,Sold,,,https://www.redfin.com/WA/Tacoma/5417-S-11th-St-98465/home/2987753,NWMLS,1905076,N,Y,47.2515329,-122.5095933
PAST SALE,May-10-2022,Single Family Residential,4315 N 13th St,Tacoma,WA,98406,730000,3,2.0,North Tacoma,2016,6000,1950,,362,,Sold,,,https://www.redfin.com/WA/Tacoma/4315-N-13th-St-98406/home/2933295,NWMLS,1916675,N,Y,47.2619787,-122.495733
PAST SALE,May-6-2022,Single Family Residential,829 S MacArthur St,Tacoma,WA,98465,370000,2,1.0,Highlands,789,7420,1948,,469,,Sold,,,https://www.redfin.com/WA/Tacoma/829-S-MacArthur-St-98465/home/2835874,NWMLS,1913789,N,Y,47.2523963,-122.5324582
PAST SALE,May-6-2022,Single Family Residential,9614 34th Ave SW,Seattle,WA,98126,625000,3,1.0,Arbor Heights,1340,6720,1942,,466,,Sold,,,https://www.redfin.com/WA/Seattle/9614-34th-Ave-SW-98126/home/154972,NWMLS,1909675,N,Y,47.5170043,-122.3752083
PAST SALE,May-6-2022,Single Family Residential,10757 17th Ave SW,Seattle,WA,98146,760000,0,,White Center,2040,8382,1953,,373,,Sold,,,https://www.redfin.com/WA/Seattle/10757-17th-Ave-SW-98146/home/179891,NWMLS,1931993,N,Y,47.5054726,-122.3569079
PAST SALE,May-9-2022,Single Family Residential,9207 Yakima Ave S #9207,Tacoma,WA,98444,420000,4,1.5,South Tacoma,1362,7926,1961,,308,,Sold,,,https://www.redfin.com/WA/Tacoma/9207-S-Yakima-Ave-98444/unit-9207/home/178974736,NWMLS,1913413,N,Y,47.1734086,-122.4430522
PAST SALE,May-9-2022,Single Family Residential,10616 13th Avenue Ct S,Tacoma,WA,98444,445000,3,1.0,South Tacoma,1032,12000,1989,,431,,Sold,,,https://www.redfin.com/WA/Tacoma/10616-13th-Ave-Ct-S-98444/home/2988495,NWMLS,1886796,N,Y,47.1606394,-122.4518161
PAST SALE,May-10-2022,Single Family Residential,863 S 88th St,Tacoma,WA,98444,455000,3,2.0,Fern Hill,1892,11326,1925,,240,,Sold,,,https://www.redfin.com/WA/Tacoma/863-S-88th-St-98444/home/2617145,NWMLS,1910847,N,Y,47.1776118,-122.445471
PAST SALE,May-6-2022,Single Family Residential,8421 16TH Ave SW,Seattle,WA,98106,532000,2,1.0,Highland Park,1420,5120,1925,,375,,Sold,,,https://www.redfin.com/WA/Seattle/8421-16th-Ave-SW-98106/home/474147,NWMLS,1897659,N,Y,47.5276176,-122.3553984
PAST SALE,May-11-2022,Single Family Residential,10910 24th Pl SW,Seattle,WA,98146,775000,4,2.5,Shorewood,2170,9945,1963,,357,,Sold,,,https://www.redfin.com/WA/Seattle/10910-24th-Pl-SW-98146/home/179245,NWMLS,1913325,N,Y,47.5054754,-122.363127
PAST SALE,May-6-2022,Single Family Residential,904 114th St S,Tacoma,WA,98444,330000,2,1.0,Parkland,848,7500,1948,,389,,Sold,,,https://www.redfin.com/WA/Tacoma/904-114th-St-S-98444/home/2947509,NWMLS,1899233,N,Y,47.1531321,-122.4464312
PAST SALE,May-6-2022,Single Family Residential,6318 S Thompson Ave,Tacoma,WA,98408,586000,3,2.0,South Tacoma,1893,6000,2022,,310,,Sold,,,https://www.redfin.com/WA/Tacoma/6318-S-Thompson-Ave-98408/home/174537694,NWMLS,1902771,N,Y,47.1997976,-122.4448489
PAST SALE,May-9-2022,Single Family Residential,1611 120th St S,Tacoma,WA,98444,375000,2,1.0,Parkland,1056,5000,1950,,355,,Sold,,,https://www.redfin.com/WA/Tacoma/1611-120th-St-S-98444/home/2987170,NWMLS,1911651,N,Y,47.1487009,-122.4561561
PAST SALE,May-9-2022,Single Family Residential,6166 S Cushman Ave,Tacoma,WA,98408,485000,4,2.5,Wapato,2122,3411,2003,,229,,Sold,,,https://www.redfin.com/WA/Tacoma/6166-S-Cushman-Ave-98408/home/3004923,NWMLS,1912905,N,Y,47.2000019,-122.4536541
PAST SALE,May-9-2022,Single Family Residential,7802 Golden Given Rd E,Tacoma,WA,98404,675000,4,2.0,Tacoma,1730,86625,1900,,390,,Sold,,,https://www.redfin.com/WA/Tacoma/7802-Golden-Given-Rd-E-98404/home/2606825,NWMLS,1865628,N,Y,47.1863284,-122.4160761
PAST SALE,May-10-2022,Single Family Residential,12704 2nd Ave E,Tacoma,WA,98445,605000,4,3.0,Parkland,1926,12325,2004,,314,,Sold,,,https://www.redfin.com/WA/Tacoma/12704-2nd-Ave-E-98445/home/2960395,NWMLS,1915030,N,Y,47.141536,-122.4288036
PAST SALE,May-6-2022,Townhouse,4518 Delridge Way SW Unit A,Seattle,WA,98106,837000,3,2.5,Delridge,1620,2032,2014,,517,,Sold,,,https://www.redfin.com/WA/Seattle/4518-Delridge-Way-SW-98106/unit-A/home/160388,NWMLS,1915304,N,Y,47.5623277,-122.3628817
PAST SALE,May-11-2022,Single Family Residential,12010 71st Ave S,Seattle,WA,98178,665000,4,3.0,Skyway,2040,9840,1955,,326,,Sold,,,https://www.redfin.com/WA/Seattle/12010-71st-Ave-S-98178/home/196734,NWMLS,1905933,N,Y,47.494044,-122.2440791
PAST SALE,May-5-2022,Single Family Residential,1322 E 34th St,Tacoma,WA,98404,530000,4,2.5,East Tacoma,1554,6500,2016,,341,,Sold,,,https://www.redfin.com/WA/Tacoma/1322-E-34th-St-98404/home/105464041,NWMLS,1908192,N,Y,47.2321864,-122.4124042
PAST SALE,May-5-2022,Single Family Residential,5212 S M St,Tacoma,WA,98418,475000,3,3.0,South Tacoma,1814,9375,1927,,262,,Sold,,,https://www.redfin.com/WA/Tacoma/5212-S-M-St-98408/home/2970384,NWMLS,1909594,N,Y,47.209536,-122.4514673
PAST SALE,May-5-2022,Single Family Residential,7401 S I St,Tacoma,WA,98408,420000,3,2.0,Fern Hill,1633,6000,1908,,257,,Sold,,,https://www.redfin.com/WA/Tacoma/7401-S-I-St-98408/home/2731312,NWMLS,1904887,N,Y,47.1899878,-122.4452957
PAST SALE,May-6-2022,Single Family Residential,212 S 43rd St,Tacoma,WA,98418,750000,4,2.0,Lincoln,2094,6000,1924,,358,,Sold,,,https://www.redfin.com/WA/Tacoma/212-S-43rd-St-98418/home/2962396,NWMLS,1895087,N,Y,47.2181253,-122.4348258
PAST SALE,May-6-2022,Single Family Residential,1663 S 46th St,Tacoma,WA,98418,408000,3,1.0,South Tacoma,1316,6400,1925,,310,,Sold,,,https://www.redfin.com/WA/Tacoma/1663-S-46th-St-98418/unit-5/home/2940286,NWMLS,1890518,N,Y,47.2157754,-122.4571638
PAST SALE,May-6-2022,Single Family Residential,4306 S K St,Tacoma,WA,98418,400000,3,2.0,South Tacoma,1792,6500,1924,,223,,Sold,,,https://www.redfin.com/WA/Tacoma/4306-S-K-St-98418/home/2979007,NWMLS,1900729,N,Y,47.2181002,-122.4481872
PAST SALE,May-5-2022,Single Family Residential,624 S 46th St,Tacoma,WA,98418,510000,4,1.0,South Tacoma,1552,4560,1922,,329,,Sold,,,https://www.redfin.com/WA/Tacoma/624-S-46th-St-98418/home/2962885,NWMLS,1929418,N,Y,47.2149572,-122.4402972
PAST SALE,May-9-2022,Single Family Residential,1601 S 40th St,Tacoma,WA,98418,332000,2,1.5,South Tacoma,1300,6840,1924,,255,,Sold,,,https://www.redfin.com/WA/Tacoma/1601-S-40th-St-98418/home/2978635,NWMLS,1916822,N,Y,47.2211672,-122.4554118
PAST SALE,May-9-2022,Single Family Residential,4332 Yakima Ave,Tacoma,WA,98418,379500,3,1.0,Tacoma,1230,6500,1903,,309,,Sold,,,https://www.redfin.com/WA/Tacoma/4332-S-Yakima-Ave-98418/home/2978941,NWMLS,1882711,N,Y,47.2171962,-122.4437961
PAST SALE,May-6-2022,Single Family Residential,3784 E R St,Tacoma,WA,98404,415000,2,1.5,Se Tacoma,1456,3381,2005,,285,100,Sold,,,https://www.redfin.com/WA/Tacoma/3784-E-R-St-98404/home/3042667,NWMLS,1912452,N,Y,47.2226556,-122.4044046
PAST SALE,May-9-2022,Single Family Residential,2035 E Fairbanks St,Tacoma,WA,98404,430000,4,2.0,Indian Addition,1620,6500,1942,,265,,Sold,,,https://www.redfin.com/WA/Tacoma/2035-E-Fairbanks-St-98404/home/2846494,NWMLS,1904342,N,Y,47.2299174,-122.4004298
PAST SALE,May-6-2022,Single Family Residential,3537 S M St,Tacoma,WA,98418,410000,3,1.0,Lincoln,1061,6500,1922,,386,,Sold,,,https://www.redfin.com/WA/Tacoma/3537-S-M-St-98418/home/2977816,NWMLS,1917780,N,Y,47.2266945,-122.450316
PAST SALE,May-9-2022,Single Family Residential,7010 A St,Tacoma,WA,98408,480000,3,2.0,Tacoma,1868,6250,1951,,257,,Sold,,,https://www.redfin.com/WA/Tacoma/7010-A-St-98408/home/2942710,NWMLS,1906290,N,Y,47.1935561,-122.4317543
PAST SALE,May-9-2022,Single Family Residential,1309 E 61st St,Tacoma,WA,98404,426000,4,1.0,East Tacoma,1338,6000,1971,,318,,Sold,,,https://www.redfin.com/WA/Tacoma/1309-E-61st-St-98404/home/2917022,NWMLS,1902154,N,Y,47.2019579,-122.41099
PAST SALE,May-10-2022,Single Family Residential,1705 E 41st St,Tacoma,WA,98404,419900,2,1.5,Tacoma,1456,2592,2007,,288,100,Sold,,,https://www.redfin.com/WA/Tacoma/1705-E-41st-St-98404/home/12406786,NWMLS,1909523,N,Y,47.2205634,-122.4062818
PAST SALE,May-10-2022,Single Family Residential,6612 E E St,Tacoma,WA,98404,382000,3,1.0,South Tacoma,2206,20000,1954,,173,,Sold,,,https://www.redfin.com/WA/Tacoma/6612-East-E-St-98404/home/2971149,NWMLS,1906547,N,Y,47.1965566,-122.4246956
PAST SALE,May-10-2022,Single Family Residential,2001 Harper St,Tacoma,WA,98404,512000,3,2.5,Se Tacoma,1557,4167,2014,,329,100,Sold,,,https://www.redfin.com/WA/Tacoma/2001-Harper-St-98404/home/22786419,NWMLS,1911180,N,Y,47.218232,-122.4008
PAST SALE,May-10-2022,Single Family Residential,3949 E T St,Tacoma,WA,98404,490000,4,2.5,East Tacoma,1696,3701,2014,,289,100,Sold,,,https://www.redfin.com/WA/Tacoma/3949-E-T-St-98404/home/22770808,NWMLS,1901494,N,Y,47.2215365,-122.4005529
PAST SALE,May-10-2022,Single Family Residential,1907 E 60th St,Tacoma,WA,98404,445000,4,2.0,Swan Creek,1374,6600,1979,,324,,Sold,,,https://www.redfin.com/WA/Tacoma/1907-E-60th-St-98404/home/2903232,NWMLS,1912052,N,Y,47.202802,-122.4037578
PAST SALE,May-10-2022,Townhouse,1445 E 48th St,Tacoma,WA,98404,489000,3,3.0,East Tacoma,1840,2925,2020,,266,,Sold,,,https://www.redfin.com/WA/Tacoma/1445-E-48th-St-98404/home/125644154,NWMLS,1909120,N,Y,47.2138046,-122.408043
PAST SALE,May-11-2022,Single Family Residential,3823 S Cushman Ave,Tacoma,WA,98418,394500,0,,Central Tacoma,1368,4440,1911,,288,,Sold,,,https://www.redfin.com/WA/Tacoma/3823-S-Cushman-Ave-98418/home/2978479,NWMLS,1932294,N,Y,47.2222676,-122.4532821
PAST SALE,May-11-2022,Single Family Residential,522 S 51st St,Tacoma,WA,98408,375000,2,1.0,South Tacoma,800,6000,1911,,469,,Sold,,,https://www.redfin.com/WA/Tacoma/522-S-51st-St-98408/home/2896246,NWMLS,1907926,N,Y,47.2106895,-122.4393443
PAST SALE,May-6-2022,Single Family Residential,3617 M St,Tacoma,WA,98418,120000,0,,Tacoma,624,6500,1925,,192,,Sold,,,https://www.redfin.com/WA/Tacoma/3617-S-M-St-98418/home/2978039,NWMLS,1932040,N,Y,47.2256789,-122.450401
PAST SALE,May-6-2022,Townhouse,10739 Glen Acres Dr S,Seattle,WA,98168,437500,2,2.5,Glen Acres,2392,119600,1974,,183,873,Sold,,,https://www.redfin.com/WA/Burien/10739-Glen-Acres-Dr-S-98168/home/160916276,NWMLS,1910476,N,Y,47.5071778,-122.3215441
PAST SALE,May-6-2022,Condo/Co-op,748 S Clover Dale St,Seattle,WA,98108,250000,1,1.0,South Park,630,15000,1963,,397,100,Sold,,,https://www.redfin.com/WA/Seattle/748-S-Cloverdale-St-98108/unit-14/home/58844,NWMLS,1879567,N,Y,47.5267255,-122.3232564
PAST SALE,May-9-2022,Single Family Residential,10710 4th Ave S,Seattle,WA,98168,625000,2,1.0,White Center,920,5481,1946,,679,,Sold,,,https://www.redfin.com/WA/Seattle/10710-4th-Ave-S-98168/home/189815,NWMLS,1916571,N,Y,47.5074132,-122.3276231
PAST SALE,May-10-2022,Multi-Family (2-4 Unit),10706 4th Ave S Unit B - A,Seattle,WA,98168,725000,5,3.0,White Center,2510,8583,1948,,289,,Sold,,,https://www.redfin.com/WA/Seattle/10706-4th-Ave-S-98168/unit-B-A/home/175702541,NWMLS,1913570,N,Y,47.5076678,-122.3275949
PAST SALE,May-10-2022,Single Family Residential,5838 17th Ave S,Seattle,WA,98108,890000,5,4.0,Beacon Hill,2360,6720,1955,,377,,Sold,,,https://www.redfin.com/WA/Seattle/5838-17th-Ave-S-98108/home/482154,NWMLS,1882543,N,Y,47.5501063,-122.3107772
PAST SALE,May-5-2022,Condo/Co-op,2801 1st Ave #1206,Seattle,WA,98121,833000,2,2.0,Belltown,905,29700,2001,,920,688,Sold,,,https://www.redfin.com/WA/Seattle/2801-1st-Ave-98121/unit-1206/home/6625,NWMLS,1913018,N,Y,47.6163521,-122.3521048
PAST SALE,May-10-2022,Condo/Co-op,1417 Queen Anne Ave N #405,Seattle,WA,98109,815500,3,2.0,Queen Anne,1194,,1996,,683,882,Sold,,,https://www.redfin.com/WA/Seattle/1417-Queen-Anne-Ave-N-98109/unit-405/home/60010,NWMLS,1918225,N,Y,47.6319104,-122.3570757
PAST SALE,May-5-2022,Single Family Residential,2607 N 14th St,Tacoma,WA,98406,388000,1,1.0,Ups,1156,1283,1920,,336,,Sold,,,https://www.redfin.com/WA/Tacoma/2607-N-14th-St-98406/home/2743518,NWMLS,1908031,N,Y,47.2625069,-122.4711001
PAST SALE,May-10-2022,Single Family Residential,5335 Hyada Blvd NE,Tacoma,WA,98422,822400,3,2.0,Browns Point,1936,9600,1920,,425,,Sold,,,https://www.redfin.com/WA/Tacoma/5335-Hyada-Blvd-NE-98422/home/2844355,NWMLS,1912388,N,Y,47.3052393,-122.4396041
PAST SALE,May-6-2022,Single Family Residential,1836 Pointe Woodworth Dr NE,Tacoma,WA,98422,950000,4,2.5,Ne Tacoma,3126,10567,2002,,304,81,Sold,,,https://www.redfin.com/WA/Tacoma/1836-Pointe-Woodworth-Dr-NE-98422/home/2871986,NWMLS,1901303,N,Y,47.2725303,-122.3718684
PAST SALE,May-9-2022,Single Family Residential,1915 Austin Rd NE,Tacoma,WA,98422,980000,4,3.0,Dash Point,3218,12197,1990,,305,,Sold,,,https://www.redfin.com/WA/Tacoma/1915-Austin-Rd-NE-98422/home/2630302,NWMLS,1907550,N,Y,47.3154798,-122.4213223
PAST SALE,May-10-2022,Single Family Residential,3139 SW 346th Pl,Federal Way,WA,98023,750000,4,2.5,Federal Way,2370,7582,2004,,316,,Sold,,,https://www.redfin.com/WA/Federal-Way/3139-SW-346th-Pl-98023/home/2070183,NWMLS,1912702,N,Y,47.2914807,-122.3755834
PAST SALE,May-5-2022,Single Family Residential,523 160th St E,Tacoma,WA,98445,530000,3,2.5,Spanaway,1858,13705,1985,,285,40,Sold,,,https://www.redfin.com/WA/Tacoma/523-160th-St-E-98445/home/2961219,NWMLS,1905036,N,Y,47.1120096,-122.4251714
PAST SALE,May-6-2022,Single Family Residential,605 118th St S,Tacoma,WA,98444,470000,6,2.0,Parkland,2668,10000,1922,,176,,Sold,,,https://www.redfin.com/WA/Tacoma/605-118th-St-S-98444/home/2723593,NWMLS,1900030,N,Y,47.1499802,-122.439933
PAST SALE,May-6-2022,Single Family Residential,1201 132nd St S,Tacoma,WA,98444,480000,3,2.0,Parkland,1954,12240,1977,,246,,Sold,,,https://www.redfin.com/WA/Tacoma/1201-132nd-St-S-98444/home/2984812,NWMLS,1913953,N,Y,47.1376479,-122.4505816
PAST SALE,May-10-2022,Single Family Residential,3702 185th Street Ct E,Tacoma,WA,98446,565000,4,2.5,Tacoma,2044,7049,2003,,276,35,Sold,,,https://www.redfin.com/WA/Tacoma/3702-185th-St-Ct-E-98446/home/3028961,NWMLS,1901549,N,Y,47.0877585,-122.3801537
PAST SALE,May-11-2022,Single Family Residential,912 Tule Lake Rd S,Tacoma,WA,98444,610000,4,3.0,Brookdale,2320,8500,1962,,263,,Sold,,,https://www.redfin.com/WA/Parkland/912-Tule-Lake-Rd-S-98444/home/2985472,NWMLS,1915115,N,Y,47.1396259,-122.4471539
PAST SALE,May-11-2022,Single Family Residential,857 136th St E,Tacoma,WA,98445,500000,3,1.5,Parkland,1448,12150,1977,,345,,Sold,,,https://www.redfin.com/WA/Tacoma/857-136th-St-E-98445/home/2919295,NWMLS,1913191,N,Y,47.1336683,-122.4190743
PAST SALE,May-5-2022,Townhouse,14018 32nd Ave NE Unit B,Seattle,WA,98125,600000,3,2.0,Olympic Hills,1360,928,2006,,441,,Sold,,,https://www.redfin.com/WA/Seattle/14018-32nd-Ave-NE-98125/unit-B/home/12305835,NWMLS,1918094,N,Y,47.7307629,-122.2933033
PAST SALE,May-10-2022,Single Family Residential,1812 N 137th St,Seattle,WA,98133,817000,3,1.0,Haller Lake,1140,6160,1948,,717,,Sold,,,https://www.redfin.com/WA/Seattle/1812-N-137th-St-98133/home/102178,NWMLS,1916554,N,Y,47.7288693,-122.3362534
PAST SALE,May-10-2022,Townhouse,1113 NE 78th St,Seattle,WA,98115,900000,3,2.5,Maple Leaf,1624,1162,2008,,554,,Sold,,,https://www.redfin.com/WA/Seattle/1113-NE-78th-St-98115/home/22082781,NWMLS,1919232,N,Y,47.6851145,-122.3158017
PAST SALE,May-11-2022,Single Family Residential,8827 Ashworth Ave N,Seattle,WA,98103,925000,3,2.0,Green Lake,1620,2563,1987,,571,,Sold,,,https://www.redfin.com/WA/Seattle/8827-Ashworth-Ave-N-98103/home/104377,NWMLS,1915680,N,Y,47.6931608,-122.3394802
PAST SALE,May-5-2022,Single Family Residential,518 133rd St S,Tacoma,WA,98444,365000,2,1.0,Parkland,690,5625,1914,,529,,Sold,,,https://www.redfin.com/WA/Tacoma/518-133rd-St-S-98444/home/2741022,NWMLS,1857794,N,Y,47.1362004,-122.4394815
PAST SALE,May-5-2022,Single Family Residential,635 S Oxford St,Tacoma,WA,98465,437500,2,1.0,Highlands,728,7000,1942,,601,,Sold,,,https://www.redfin.com/WA/Tacoma/635-S-Oxford-St-98465/home/2835786,NWMLS,1900919,N,Y,47.2541245,-122.5310728
PAST SALE,May-5-2022,Single Family Residential,10245 36th Ave SW,Seattle,WA,98146,850000,3,1.0,Arbor Heights,1260,5000,1938,,675,,Sold,,,https://www.redfin.com/WA/Seattle/10245-36th-Ave-SW-98146/home/154946,NWMLS,1916529,N,Y,47.5107259,-122.3773586
PAST SALE,May-11-2022,Moorage,2143 N Northlake Way #26,Seattle,WA,98103,190000,0,,Lake Union,460,460,1984,,413,348,Sold,,,https://www.redfin.com/WA/Seattle/2143-N-Northlake-Way-98103/unit-26/home/34617,NWMLS,1932529,N,Y,47.6468898,-122.3322656
PAST SALE,May-11-2022,Condo/Co-op,1730 N Northlake Way #214,Seattle,WA,98103,830000,2,2.0,Wallingford,1099,54677,2002,,755,668,Sold,,,https://www.redfin.com/WA/Seattle/1730-N-Northlake-Way-98103/unit-214/home/12448727,NWMLS,1908923,N,Y,47.6471292,-122.3367736
PAST SALE,May-10-2022,Vacant Land,30 XX Fauntleroy Ave SW,Seattle,WA,98126,77500,,,Admiral,,7525,,,,,Sold,,,https://www.redfin.com/WA/Seattle/30-xx-Fauntleroy-Ave-SW-98126/home/175094214,NWMLS,1913698,N,Y,47.576618,-122.372576
PAST SALE,May-10-2022,Vacant Land,3040 Fauntleroy Ave SW,Seattle,WA,98126,82500,,,Admiral,,8289,,,,,Sold,,,https://www.redfin.com/WA/Seattle/3040-Fauntleroy-Ave-SW-98126/home/178975915,NWMLS,1913712,N,Y,47.5760228,-122.373805
PAST SALE,May-5-2022,Single Family Residential,4659 S Willow St,Seattle,WA,98118,805000,4,2.0,Brighton,2370,11830,1931,,340,,Sold,,,https://www.redfin.com/WA/Seattle/4659-S-Willow-St-98118/home/172920,NWMLS,1906022,N,Y,47.5405487,-122.2728333
PAST SALE,May-10-2022,Single Family Residential,8320 Seward Park Ave S,Seattle,WA,98118,715000,5,2.5,Rainier Beach,2540,5452,1966,,281,,Sold,,,https://www.redfin.com/WA/Seattle/8320-Seward-Park-Ave-S-98118/home/489799,NWMLS,1906482,N,Y,47.5289557,-122.2659731
PAST SALE,May-6-2022,Single Family Residential,3038 NW 72nd St,Seattle,WA,98117,948000,2,2.0,Sunset Hill,1330,5000,1924,,713,,Sold,,,https://www.redfin.com/WA/Seattle/3038-NW-72nd-St-98117/home/166314,NWMLS,1909290,N,Y,47.6811422,-122.397352
PAST SALE,May-5-2022,Condo/Co-op,11556 Greenwood Ave N #205,Seattle,WA,98133,459000,2,2.0,Greenwood,976,14588,1974,,470,663,Sold,,,https://www.redfin.com/WA/Seattle/11556-Greenwood-Ave-N-98133/unit-205/home/37376,NWMLS,1909143,N,Y,47.7138792,-122.3551491
PAST SALE,May-10-2022,Vacant Land,3020 Fauntleroy Ave SW,Seattle,WA,98126,110000,,,Admiral,,9378,,,,,Sold,,,https://www.redfin.com/WA/Seattle/3020-Fauntleroy-Ave-SW-98126/home/40489770,NWMLS,1914545,N,Y,47.5764864,-122.3732482
PAST SALE,May-5-2022,Condo/Co-op,121 Stewart St #2604,Seattle,WA,98101,844000,1,1.0,Downtown,773,,2020,,1092,704,Sold,,,https://www.redfin.com/WA/Seattle/121-Stewart-St-98101/unit-2604/home/175699753,NWMLS,1892196,N,Y,47.6106852,-122.3406126
PAST SALE,May-6-2022,Condo/Co-op,621 5th N #209,Seattle,WA,98109,625000,2,2.0,Queen Anne,943,,1999,,663,590,Sold,,,https://www.redfin.com/WA/Seattle/621-5th-Ave-N-98109/unit-209/home/12092236,NWMLS,1907524,N,Y,47.6252051,-122.3479871
PAST SALE,May-5-2022,Condo/Co-op,1420 Terry Ave #707,Seattle,WA,98101,419000,1,1.0,Capitol Hill,624,,2002,,671,693,Sold,,,https://www.redfin.com/WA/Seattle/1420-Terry-Ave-98101/unit-707/home/12661,NWMLS,1916042,N,Y,47.6126569,-122.3293103
PAST SALE,May-6-2022,Condo/Co-op,211 Summit Ave E Unit S-115,Seattle,WA,98102,404000,1,1.0,Capitol Hill,557,,1984,,725,350,Sold,,,https://www.redfin.com/WA/Seattle/211-Summit-Ave-E-98102/unit-S-115/home/40308,NWMLS,1911416,N,Y,47.6200663,-122.3257502
PAST SALE,May-6-2022,Condo/Co-op,400 Boylston Ave E #210,Seattle,WA,98102,377000,1,1.0,Capitol Hill,510,,1931,,739,441,Sold,,,https://www.redfin.com/WA/Seattle/400-Boylston-Ave-E-98102/unit-210/home/61526,NWMLS,1915360,N,Y,47.6221441,-122.3228386
PAST SALE,May-6-2022,Condo/Co-op,506 E Howell St #108,Seattle,WA,98122,297000,1,1.0,Capitol Hill,502,,1992,,592,356,Sold,,,https://www.redfin.com/WA/Seattle/506-E-Howell-St-98122/unit-108/home/60899,NWMLS,1900703,N,Y,47.6180434,-122.3249523
PAST SALE,May-9-2022,Condo/Co-op,1301 Spring St Unit 11C,Seattle,WA,98104,712500,2,2.0,First Hill,1145,,1982,,622,1273,Sold,,,https://www.redfin.com/WA/Seattle/1301-Spring-St-98104/unit-11C/home/48959,NWMLS,1886846,N,Y,47.6110552,-122.3225231
PAST SALE,May-9-2022,Condo/Co-op,1617 Summit Ave #11,Seattle,WA,98122,683000,2,2.0,Capitol Hill,1050,1050,1986,,650,532,Sold,,,https://www.redfin.com/WA/Seattle/1617-Summit-Ave-98122/unit-11/home/73415,NWMLS,1914246,N,Y,47.6158506,-122.3259633
PAST SALE,May-9-2022,Condo/Co-op,1415 2nd Ave #702,Seattle,WA,98101,877500,2,2.0,Downtown,954,,1991,,920,954,Sold,,,https://www.redfin.com/WA/Seattle/1415-2nd-Ave-98101/unit-702/home/64877,NWMLS,1909364,N,Y,47.6089616,-122.3390632
PAST SALE,May-9-2022,Townhouse,1416 18th Ave Unit C,Seattle,WA,98122,950000,2,2.5,Capitol Hill,1260,1416,2007,,754,,Sold,,,https://www.redfin.com/WA/Seattle/1416-18th-Ave-98122/unit-C/home/8190233,NWMLS,1912660,N,Y,47.6134254,-122.308315
PAST SALE,May-10-2022,Condo/Co-op,450 S Main St #1303,Seattle,WA,98104,899950,1,2.0,International District,880,,2021,,1023,733,Sold,,,https://www.redfin.com/WA/Seattle/450-S-Main-St-98104/unit-1303/home/176359003,NWMLS,1914209,N,Y,47.6002447,-122.3280012
PAST SALE,May-11-2022,Condo/Co-op,1114 Lakeview Blvd E Unit E,Seattle,WA,98102,1000000,2,2.5,Capitol Hill,1392,,2008,,718,1074,Sold,,,https://www.redfin.com/WA/Seattle/1114-Lakeview-Blvd-E-98102/unit-E/home/16902985,NWMLS,1906298,N,Y,47.6296572,-122.3251557
PAST SALE,May-11-2022,Condo/Co-op,231 Belmont Ave E #110,Seattle,WA,98102,355000,1,1.0,Capitol Hill,522,,1989,,680,374,Sold,,,https://www.redfin.com/WA/Seattle/231-Belmont-Ave-E-98102/unit-110/home/12306250,NWMLS,1917347,N,Y,47.6205885,-122.3243153
PAST SALE,May-6-2022,Townhouse,14527 1st Ave NE Unit G,Shoreline,WA,98155,779880,3,3.0,Shoreline,1528,,2021,,510,180,Sold,,,https://www.redfin.com/WA/Shoreline/14527-1st-Ave-NE-98133/unit-G/home/175917252,NWMLS,1817283,N,Y,47.7349466,-122.3291971
PAST SALE,May-6-2022,Single Family Residential,14006 Ashworth Ave N,Seattle,WA,98133,780000,3,1.5,Haller Lake,1160,5250,1947,,672,,Sold,,,https://www.redfin.com/WA/Seattle/14006-Ashworth-Ave-N-98133/home/101741,NWMLS,1911301,N,Y,47.7307268,-122.3393558
PAST SALE,May-6-2022,Condo/Co-op,6012 N 15th St Unit D102,Tacoma,WA,98406,325000,2,1.5,Highlands,972,3047,1977,,334,358,Sold,,,https://www.redfin.com/WA/Tacoma/6012-N-15th-St-98406/unit-D102/home/2836658,NWMLS,1913130,N,Y,47.26384,-122.517019
PAST SALE,May-9-2022,Single Family Residential,3311 S Gunnison St,Tacoma,WA,98409,272500,1,1.0,Oakland,538,6000,1917,,507,,Sold,,,https://www.redfin.com/WA/Tacoma/3311-S-Gunnison-St-98409/home/2940621,NWMLS,1910436,N,Y,47.2297943,-122.4904533
PAST SALE,May-10-2022,Single Family Residential,4820 S 18th St,Tacoma,WA,98405,655000,3,1.5,Central Tacoma,1792,18421,1959,,366,,Sold,,,https://www.redfin.com/WA/Tacoma/4820-S-18th-St-98405/home/2797576,NWMLS,1911006,N,Y,47.2440111,-122.5021898
PAST SALE,May-10-2022,Single Family Residential,7216 Rosemount Cir,Tacoma,WA,98465,640000,2,2.0,Tacoma,1746,6100,2007,,367,377,Sold,,,https://www.redfin.com/WA/Tacoma/7216-Rosemount-Cir-98465/home/12245224,NWMLS,1916210,N,Y,47.2432564,-122.5338936
PAST SALE,May-10-2022,Single Family Residential,5619 N 23rd St,Tacoma,WA,98406,661000,2,1.0,Westgate,1200,9337,1952,,551,,Sold,,,https://www.redfin.com/WA/Tacoma/5619-N-23rd-St-98406/home/2990045,NWMLS,1919580,N,Y,47.2690979,-122.5127266
PAST SALE,May-10-2022,Single Family Residential,4830 N Pearl St,Tacoma,WA,98407,550000,3,2.0,North Tacoma,1945,3000,1945,,283,,Sold,,,https://www.redfin.com/WA/Tacoma/4830-N-Pearl-St-98407/home/2738409,NWMLS,1908645,N,Y,47.294263,-122.515966
PAST SALE,May-10-2022,Single Family Residential,2340 N Shirley,Tacoma,WA,98406,665000,3,1.5,Westgate,1533,6534,1956,,434,,Sold,,,https://www.redfin.com/WA/Tacoma/2340-N-Shirley-St-98406/home/2990078,NWMLS,1909579,N,Y,47.2705505,-122.5109687
PAST SALE,May-11-2022,Single Family Residential,114 Alameda Ave,Fircrest,WA,98466,465000,3,1.0,Fircrest,1082,5013,1948,,430,,Sold,,,https://www.redfin.com/WA/Fircrest/114-Alameda-Ave-98466/home/2734999,NWMLS,1901780,N,Y,47.2421522,-122.5162453
PAST SALE,May-11-2022,Single Family Residential,5301 N 30th St,Tacoma,WA,98407,540000,3,1.0,North Tacoma,882,7540,1951,,612,,Sold,,,https://www.redfin.com/WA/Tacoma/5301-N-30th-St-98407/home/2990556,NWMLS,1911943,N,Y,47.274547,-122.5086081
PAST SALE,May-11-2022,Single Family Residential,902 N Stevens St,Tacoma,WA,98406,600000,3,2.0,North Tacoma,1250,8000,1947,,480,,Sold,,,https://www.redfin.com/WA/Tacoma/902-N-Stevens-St-98406/home/2965036,NWMLS,1904918,N,Y,47.2582467,-122.4964945
PAST SALE,May-9-2022,Vacant Land,3650 60th Ave SW,Seattle,WA,98116,479000,,,Beach Drive,,8318,,,,,Sold,,,https://www.redfin.com/WA/Seattle/3650-60th-Ave-SW-98116/home/22620239,NWMLS,1747086,N,Y,47.571249,-122.409224
PAST SALE,May-5-2022,Single Family Residential,7605 S 135th St,Seattle,WA,98178,779500,4,2.0,Earlington,2160,27400,1963,,361,,Sold,,,https://www.redfin.com/WA/Seattle/7605-S-135th-St-98178/home/196225,NWMLS,1894348,N,Y,47.4819769,-122.2381341
PAST SALE,May-6-2022,Townhouse,5052 Sand Point Way NE #1,Seattle,WA,98105,850000,2,2.5,Laurelhurst,1184,798,2020,,718,39,Sold,,,https://www.redfin.com/WA/Seattle/5052-Sand-Point-Way-NE-98105/unit-1/home/178691090,NWMLS,1901525,N,Y,47.6661975,-122.2811723
PAST SALE,May-10-2022,Condo/Co-op,5878 NE Parkpoint Dr Unit F302,Seattle,WA,98115,685000,2,2.0,Sand Point,1758,,1974,,390,1084,Sold,,,https://www.redfin.com/WA/Seattle/5878-NE-Park-Point-Dr-98115/unit-F302/home/179126890,NWMLS,1919856,N,Y,47.6769205,-122.2640005
PAST SALE,May-6-2022,Condo/Co-op,3015 SW Avalon Way #106,Seattle,WA,98126,310000,1,1.0,West Seattle,555,,2002,,559,365,Sold,,,https://www.redfin.com/WA/Seattle/3015-SW-Avalon-Way-98126/unit-106/home/17993,NWMLS,1908483,N,Y,47.5664119,-122.3711697
PAST SALE,May-5-2022,Townhouse,4253 SW Charlestown,Seattle,WA,98116,862000,3,2.5,Genesee,1520,1015,2016,,567,100,Sold,,,https://www.redfin.com/WA/Seattle/4253-SW-Charlestown-St-98116/home/109083217,NWMLS,1908839,N,Y,47.5700338,-122.3863768
PAST SALE,May-5-2022,Condo/Co-op,1707 Boylston Ave #210,Seattle,WA,98122,250000,0,1.0,Capitol Hill,397,,1965,,630,387,Sold,,,https://www.redfin.com/WA/Seattle/1707-Boylston-Ave-98122/unit-210/home/12536862,NWMLS,1874278,N,Y,47.616649,-122.3237236
PAST SALE,May-6-2022,Condo/Co-op,613 4th Ave W #101,Seattle,WA,98119,654000,2,2.0,Queen Anne,1175,,1979,,557,597,Sold,,,https://www.redfin.com/WA/Seattle/613-4th-Ave-W-98119/unit-101/home/38720,NWMLS,1910606,N,Y,47.6251942,-122.3623346
PAST SALE,May-6-2022,Single Family Residential,3004 S 15th St,Tacoma,WA,98405,610000,3,2.5,Central Tacoma,2028,6137,2021,,301,,Sold,,,https://www.redfin.com/WA/Tacoma/3004-S-15th-St-98405/home/23421804,NWMLS,1911987,N,Y,47.2461041,-122.4750866
PAST SALE,May-6-2022,Condo/Co-op,1311 12th Ave S Unit G-102,Seattle,WA,98144,399950,2,1.0,Beacon Hill,884,,1985,,452,557,Sold,,,https://www.redfin.com/WA/Seattle/1311-12th-Ave-S-98144/unit-G102/home/2119181,NWMLS,1900845,N,Y,47.5913358,-122.3176421
PAST SALE,May-6-2022,Single Family Residential,7816 S Sheridan Ave,Tacoma,WA,98408,480000,3,2.0,Tacoma,2808,7460,1949,,171,,Sold,,,https://www.redfin.com/WA/Tacoma/7816-S-Sheridan-Ave-98408/home/2954482,NWMLS,1912606,N,Y,47.1859192,-122.4529037
PAST SALE,May-9-2022,Single Family Residential,2305 67th Ave NE,Tacoma,WA,98422,515000,3,2.0,Ne Tacoma,1548,5491,1980,,333,,Sold,,,https://www.redfin.com/WA/Tacoma/2305-67th-Ave-NE-98422/home/2937746,NWMLS,1930688,N,Y,47.2773888,-122.3572955
PAST SALE,May-5-2022,Condo/Co-op,701 17th Ave #103,Seattle,WA,98122,675000,2,2.0,Central Area,1070,,1981,,631,609,Sold,,,https://www.redfin.com/WA/Seattle/701-17th-Ave-98122/unit-103/home/31177,NWMLS,1895263,N,Y,47.6083288,-122.3106276
PAST SALE,May-6-2022,Condo/Co-op,1506 NE 140th St Unit B-6,Seattle,WA,98125,653000,2,2.0,Olympic Hills,1568,,1973,,416,700,Sold,,,https://www.redfin.com/WA/Seattle/1506-NE-140th-St-98125/unit-B6/home/6278,NWMLS,1909596,N,Y,47.7305657,-122.3121148
PAST SALE,May-6-2022,Single Family Residential,9523 9th Ave NW,Seattle,WA,98117,910000,4,2.0,Crown Hill,2050,9827,1966,,444,,Sold,,,https://www.redfin.com/WA/Seattle/9523-9th-Ave-NW-98117/home/95516,NWMLS,1915277,N,Y,47.6984733,-122.3691066
PAST SALE,May-6-2022,Single Family Residential,2726 NE 135th St,Seattle,WA,98125,699000,4,1.0,Olympic Hills,1740,7177,1954,,402,,Sold,,,https://www.redfin.com/WA/Seattle/2726-NE-135th-St-98125/home/115054,NWMLS,1911872,N,Y,47.7267392,-122.2979408
PAST SALE,May-6-2022,Condo/Co-op,7307 Sand Point Way NE #613,Seattle,WA,98115,465000,1,1.0,View Ridge,1107,,1979,,420,313,Sold,,,https://www.redfin.com/WA/Seattle/7307-Sand-Point-Way-NE-98115/unit-613/home/2118027,NWMLS,1914556,N,Y,47.682112,-122.2645738
PAST SALE,May-6-2022,Condo/Co-op,5847 NE 75Th St Unit A-103,Seattle,WA,98115,351000,1,1.0,Sand Point,769,,1979,,456,263,Sold,,,https://www.redfin.com/WA/Seattle/5847-NE-75th-St-98115/unit-A-103/home/17064896,NWMLS,1907432,N,Y,47.6827915,-122.2650717
PAST SALE,May-6-2022,Townhouse,9507 Ashworth Ave N Unit A,Seattle,WA,98103,925000,3,3.5,Licton Springs,1410,1256,2005,,656,,Sold,,,https://www.redfin.com/WA/Seattle/9507-Ashworth-Ave-N-98103/unit-A/home/2075824,NWMLS,1901388,N,Y,47.6981006,-122.339962
PAST SALE,May-6-2022,Condo/Co-op,2012 Eastlake Ave E #106,Seattle,WA,98102,500000,1,1.0,Eastlake,590,,1986,,847,340,Sold,,,https://www.redfin.com/WA/Seattle/2012-Eastlake-Ave-E-98102/unit-106/home/37736,NWMLS,1908139,N,Y,47.6371229,-122.3255202
PAST SALE,May-6-2022,Single Family Residential,6020 N 42nd St,Tacoma,WA,98407,500000,3,2.0,Tacoma,2308,7550,1979,,217,,Sold,,,https://www.redfin.com/WA/Tacoma/6020-N-42nd-St-98407/home/2768450,NWMLS,1874368,N,Y,47.286932,-122.5181177
PAST SALE,May-6-2022,Vacant Land,2302 G St,Tacoma,WA,98405,275000,,,Tacoma,,4598,,,,,Sold,,,https://www.redfin.com/WA/Tacoma/2302-S-G-St-98405/home/2745461,NWMLS,1912015,N,Y,47.240803,-122.443632
PAST SALE,May-9-2022,Vacant Land,0 12th Ave S,SeaTac,WA,98198,36000,,,SeaTac,,9837,,,,,Sold,,,https://www.redfin.com/WA/SEATTLE/12TH-AVE-S-98104/home/146949531,NWMLS,1931372,N,Y,47.598594,-122.317522
PAST SALE,May-6-2022,Single Family Residential,6447 S Lawrence St,Tacoma,WA,98409,425000,3,1.5,South Tacoma,1570,7200,1917,,271,,Sold,,,https://www.redfin.com/WA/Tacoma/6447-S-Lawrence-St-98409/home/2970866,NWMLS,1914337,N,Y,47.1976335,-122.479479
PAST SALE,May-6-2022,Single Family Residential,3817 E K St,Tacoma,WA,98404,455000,4,2.0,McKinley,1892,5000,1917,,240,,Sold,,,https://www.redfin.com/WA/Tacoma/3817-E-K-St-98404/home/2918851,NWMLS,1911482,N,Y,47.2223583,-122.4160888
PAST SALE,May-6-2022,Single Family Residential,439 E 63rd St,Tacoma,WA,98404,410000,2,1.0,Se Tacoma,720,6000,1955,,569,,Sold,,,https://www.redfin.com/WA/Tacoma/439-E-63rd-St-98404/home/2735261,NWMLS,1913900,N,Y,47.2001565,-122.4240619
PAST SALE,May-5-2022,Townhouse,4033 Whitman Ave N Unit A,Seattle,WA,98103,910000,3,2.0,Wallingford,1378,1002,1999,,660,,Sold,,,https://www.redfin.com/WA/Seattle/4033-Whitman-Ave-N-98103/unit-A/home/119175,NWMLS,1907654,N,Y,47.6564341,-122.3462156
PAST SALE,May-6-2022,Mobile/Manufactured Home,3005 35th Avenue Ct E #24,Tacoma,WA,98443,69000,2,2.0,Tacoma,1620,,1990,,43,,Sold,,,https://www.redfin.com/WA/Tacoma/3005-35th-Ave-Ct-E-98443/unit-24/home/3020145,NWMLS,1918986,N,Y,47.2297642,-122.3813904
PAST SALE,May-6-2022,Single Family Residential,2522 58th Ave NE,Tacoma,WA,98422,460000,2,1.0,Ne Tacoma,720,6000,1940,,639,,Sold,,,https://www.redfin.com/WA/Tacoma/2522-58th-Ave-NE-98422/home/2937180,NWMLS,1911303,N,Y,47.2799351,-122.3704124
PAST SALE,May-5-2022,Condo/Co-op,611 Highland Dr #301,Seattle,WA,98109,454000,1,1.0,Queen Anne,780,,2001,,582,387,Sold,,,https://www.redfin.com/WA/Seattle/611-Highland-Dr-98109/unit-301/home/73860,NWMLS,1903994,N,Y,47.6294626,-122.3441287
PAST SALE,May-6-2022,Condo/Co-op,4907 Main St #523,Tacoma,WA,98407,706183,2,2.0,North Tacoma,1296,,2022,,545,454,Sold,,,https://www.redfin.com/WA/Tacoma/4907-Main-St-98407/unit-523/home/178471954,NWMLS,1930330,N,Y,47.2966646,-122.5005707
PAST SALE,May-6-2022,Single Family Residential,4310 N Huson St,Tacoma,WA,98407,455000,2,1.0,North Tacoma,948,5280,1943,,480,,Sold,,,https://www.redfin.com/WA/Tacoma/4310-N-Huson-St-98407/home/2954327,NWMLS,1913508,N,Y,47.2887191,-122.5041452
PAST SALE,May-6-2022,Condo/Co-op,3201 Pacific Ave #207,Tacoma,WA,98418,395000,2,2.0,Tacoma,1281,1042,2002,,308,503,Sold,,,https://www.redfin.com/WA/Tacoma/3201-Pacific-Ave-98418/unit-207/home/3030534,NWMLS,1910827,N,Y,47.2316533,-122.4336347
PAST SALE,May-5-2022,Single Family Residential,1314 E 60th St,Tacoma,WA,98404,442500,3,2.5,Tacoma,1336,6000,2002,,331,,Sold,,,https://www.redfin.com/WA/Tacoma/1314-E-60th-St-98404/home/3005112,NWMLS,1915127,N,Y,47.2023494,-122.4108269
PAST SALE,May-5-2022,Single Family Residential,6107 E McKinley Ave,Tacoma,WA,98404,409000,3,1.5,Tacoma,2340,7000,1953,,175,,Sold,,,https://www.redfin.com/WA/Tacoma/6107-E-McKinley-Ave-98404/home/2916328,NWMLS,1890434,N,Y,47.2014057,-122.4206535
PAST SALE,May-5-2022,Single Family Residential,115 S 52nd St,Tacoma,WA,98408,500000,3,3.0,Tacoma,2226,6550,1946,,225,,Sold,,,https://www.redfin.com/WA/Tacoma/115-S-52nd-St-98408/home/2595324,NWMLS,1901924,N,Y,47.2101942,-122.4322205
PAST SALE,May-5-2022,Single Family Residential,901 S 56th St,Tacoma,WA,98408,340000,3,1.0,South Tacoma,1548,4275,1928,,220,,Sold,,,https://www.redfin.com/WA/Tacoma/901-S-56th-St-98408/home/2970474,NWMLS,1900188,N,Y,47.2066021,-122.4461065
PAST SALE,May-6-2022,Single Family Residential,13616 50th Ave E,Tacoma,WA,98446,325000,3,2.0,Brookdale,1512,21821,1974,,215,,Sold,,,https://www.redfin.com/WA/Tacoma/13616-50th-Ave-E-98446/home/3014670,NWMLS,1917270,N,Y,47.1321137,-122.3630998
PAST SALE,May-5-2022,Single Family Residential,5201 S Warner St,Tacoma,WA,98409,506000,4,1.0,Tacoma,2512,5380,1920,,201,,Sold,,,https://www.redfin.com/WA/Tacoma/5201-S-Warner-St-98409/unit-5/home/2986316,NWMLS,1912130,N,Y,47.2096065,-122.4810011
PAST SALE,May-5-2022,Single Family Residential,1104 S Union Ave,Tacoma,WA,98405,505000,3,2.0,Central Tacoma,2086,3956,1914,,242,,Sold,,,https://www.redfin.com/WA/Tacoma/1104-S-Union-Ave-98405/home/2820194,NWMLS,1915325,N,Y,47.250583,-122.4839018
PAST SALE,May-5-2022,Single Family Residential,8601 East Side Dr NE,Tacoma,WA,98422,675000,3,2.0,Dash Point,1442,20000,1958,,468,,Sold,,,https://www.redfin.com/WA/Tacoma/8601-E-Side-Dr-NE-98422/home/2792076,NWMLS,1916163,N,Y,47.3175947,-122.4195974
PAST SALE,May-6-2022,Townhouse,1000 NE 112th St Unit B,Seattle,WA,98125,892200,3,3.0,Northgate,2101,928,2021,,425,175,Sold,,,https://www.redfin.com/WA/Seattle/1000-NE-112th-St-98125/unit-B/home/177922274,NWMLS,1881119,N,Y,47.7097855,-122.3178606
PAST SALE,May-5-2022,Single Family Residential,3821 E I St,Tacoma,WA,98404,270000,2,1.0,McKinley,872,5000,1943,,310,,Sold,,,https://www.redfin.com/WA/Tacoma/3821-E-I-St-98404/home/2918766,NWMLS,1917786,N,Y,47.2222314,-122.4183362
PAST SALE,May-9-2022,Condo/Co-op,12300 33rd Ave NE #201,Seattle,WA,98125,350000,2,2.0,Lake City,971,,1983,,360,715,Sold,,,https://www.redfin.com/WA/Seattle/12300-33rd-Ave-NE-98125/unit-201/home/29529,NWMLS,1908077,N,Y,47.7176065,-122.2923915
PAST SALE,May-6-2022,Single Family Residential,4216 C Linden Ave N,Seattle,WA,98103,860000,2,2.0,Fremont,1292,1057,2022,,666,,Sold,,,https://www.redfin.com/WA/Seattle/4216-Linden-Ave-N-98103/unit-A/home/302278,NWMLS,1906803,N,Y,47.6582917,-122.3482072
PAST SALE,May-6-2022,Condo/Co-op,9710 5th Ave NE #308,Seattle,WA,98115,358000,1,1.0,Northgate,748,,1979,,479,302,Sold,,,https://www.redfin.com/WA/Seattle/9710-5th-Ave-NE-98115/unit-308/home/69085,NWMLS,1912545,N,Y,47.7002324,-122.3227588
PAST SALE,May-9-2022,Condo/Co-op,10501 8th Ave NE #420,Seattle,WA,98125,407000,2,1.0,Northgate,970,,1984,,420,589,Sold,,,https://www.redfin.com/WA/Seattle/10501-8th-Ave-NE-98125/unit-420/home/22659,NWMLS,1913885,N,Y,47.7054772,-122.3211175
PAST SALE,May-10-2022,Townhouse,8028 13th Ave NW,Seattle,WA,98117,825000,2,2.5,Ballard,1319,2511,2022,,625,71,Sold,,,https://www.redfin.com/WA/Seattle/8028-13th-Ave-NW-98117/home/176360839,NWMLS,1909125,N,Y,47.687763112,-122.3724931
PAST SALE,May-10-2022,Single Family Residential,8316 14th Ave NW,Seattle,WA,98117,1000000,3,1.5,Crown Hill,2280,3591,1909,,439,,Sold,,,https://www.redfin.com/WA/Seattle/8316-14th-Ave-NW-98117/home/498325,NWMLS,1897784,N,Y,47.6893171,-122.3738039
PAST SALE,May-11-2022,Condo/Co-op,8354 11th Ave NW #5,Seattle,WA,98117,385000,2,1.0,Crown Hill,744,,1966,,517,320,Sold,,,https://www.redfin.com/WA/Seattle/8354-11th-Ave-NW-98117/unit-5/home/2119223,NWMLS,1893708,N,Y,47.6903634,-122.3700806
PAST SALE,May-11-2022,Condo/Co-op,2530 15th Ave W #503,Seattle,WA,98119,345000,1,1.0,Queen Anne,682,,2000,,506,575,Sold,,,https://www.redfin.com/WA/Seattle/2530-15th-Ave-W-98119/unit-503/home/31417,NWMLS,1912885,N,Y,47.6416954,-122.3757789
PAST SALE,May-11-2022,Condo/Co-op,2241 13th Ave W #201,Seattle,WA,98119,645000,2,2.0,Queen Anne,1204,6823,1996,,536,585,Sold,,,https://www.redfin.com/WA/Seattle/2241-13th-Ave-W-98119/unit-201/home/17965,NWMLS,1912017,N,Y,47.6395294,-122.3741891
PAST SALE,May-6-2022,Condo/Co-op,9057 Greenwood Ave N #406,Seattle,WA,98103,600000,2,2.0,Greenwood,1207,,2007,,497,607,Sold,,,https://www.redfin.com/WA/Seattle/9057-Greenwood-Ave-N-98103/unit-406/home/12307114,NWMLS,1908124,N,Y,47.6958237,-122.3558161
PAST SALE,May-5-2022,Single Family Residential,10541 Phinney Ave N,Seattle,WA,98133,775000,3,2.0,Greenwood,1260,8085,1937,,615,,Sold,,,https://www.redfin.com/WA/Seattle/10541-Phinney-Ave-N-98133/home/99518,NWMLS,1898556,N,Y,47.706238,-122.3543966
PAST SALE,May-9-2022,Townhouse,4327 Woodland Park Ave N,Seattle,WA,98103,900000,2,2.0,Wallingford,1382,1032,2016,,651,68,Sold,,,https://www.redfin.com/WA/Seattle/4327-Woodland-Park-Ave-N-98103/home/109003161,NWMLS,1908514,N,Y,47.6601438,-122.3447631
PAST SALE,May-9-2022,Townhouse,4636 Linden Ave N,Seattle,WA,98103,755950,2,2.0,Fremont,1033,506,2021,,732,35,Sold,,,https://www.redfin.com/WA/Seattle/4636-Linden-Ave-N-98103/home/174076062,NWMLS,1912264,N,Y,47.6624421,-122.3483077
PAST SALE,May-6-2022,Single Family Residential,811 NE 57th St,Seattle,WA,98105,810000,2,1.5,Green Lake,1240,4392,1979,,653,,Sold,,,https://www.redfin.com/WA/Seattle/811-NE-57th-St-98105/home/311744,NWMLS,1908338,N,Y,47.6698538,-122.319549
PAST SALE,May-9-2022,Townhouse,4355 8th Ave NE,Seattle,WA,98105,760000,3,2.5,University District,1290,1118,2009,,589,,Sold,,,https://www.redfin.com/WA/Seattle/4355-8th-Ave-NE-98105/home/312080,NWMLS,1914485,N,Y,47.6607662,-122.319956
PAST SALE,May-11-2022,Condo/Co-op,2301 NE Blakeley St #307,Seattle,WA,98105,498000,1,1.0,Ravenna,643,12040,1997,,774,345,Sold,,,https://www.redfin.com/WA/Seattle/2301-NE-Blakeley-St-98105/unit-307/home/35100,NWMLS,1909218,N,Y,47.6650614,-122.3024382
PAST SALE,May-9-2022,Condo/Co-op,722 N 85th St #34,Seattle,WA,98103,547000,2,2.0,Greenwood,1340,,1986,,408,405,Sold,,,https://www.redfin.com/WA/Seattle/722-N-85th-St-98103/unit-34/home/65459,NWMLS,1911520,N,Y,47.6908543,-122.3487406
PAST SALE,May-11-2022,Single Family Residential,950 86th St N,Seattle,WA,98103,900000,5,2.5,Greenwood,2280,5100,1911,,395,,Sold,,,https://www.redfin.com/WA/Seattle/950-N-86th-St-98103/home/99110,NWMLS,1907523,N,Y,47.6914817,-122.3451985
PAST SALE,May-9-2022,Single Family Residential,5226 38th Ave SW,Seattle,WA,98126,779900,4,2.0,Fairmount,1820,4800,1912,,429,,Sold,,,https://www.redfin.com/WA/Seattle/5226-38th-Ave-SW-98126/home/470732,NWMLS,1885388,N,Y,47.5548884,-122.3799571
