SALE TYPE,SOLD DATE,PROPERTY TYPE,ADDRESS,CITY,STATE OR PROVINCE,ZIP OR POSTAL CODE,PRICE,BEDS,BATHS,LOCATION,SQUARE FEET,LOT SIZE,YEAR BUILT,DAYS ON MARKET,$/SQUARE FEET,HOA/MONTH,STATUS,NEXT OPEN HOUSE START TIME,NEXT OPEN HOUSE END TIME,URL (SEE https://www.redfin.com/buy-a-home/comparative-market-analysis FOR INFO ON PRICING),SOURCE,MLS#,FAVORITE,INTERESTED,LATITUDE,LONGITUDE
MLS Listing,,Single Family Residential,1438 E 34th St,Tacoma,WA,98404,319999,2,1.0,East Tacoma,670,5850,1942,25,478,,Active,November-26-2022 12:00 PM,November-26-2022 03:00 PM,https://www.redfin.com/WA/Tacoma/1438-E-34th-St-98404/home/2845502,NWMLS,2011991,N,Y,47.2324539,-122.4101148
MLS Listing,,Single Family Residential,3827 S Cushman Ave,Tacoma,WA,98418,425000,4,3.0,Lincoln,1485,4440,2014,123,286,,Active,,,https://www.redfin.com/WA/Tacoma/3827-S-Cushman-Ave-98418/home/2978480,NWMLS,1972776,N,Y,47.2221435,-122.453271
MLS Listing,,Single Family Residential,3846 32nd Ave W,Seattle,WA,98199,1000000,4,2.0,Magnolia,1820,4920,1950,4,549,,Active,,,https://www.redfin.com/WA/Seattle/3846-32nd-Ave-W-98199/home/127978,NWMLS,2017498,N,Y,47.655472,-122.3978827
MLS Listing,,Single Family Residential,12712 10th Ave NE,Seattle,WA,98125,799950,3,1.0,Pinehurst,970,12097,1956,14,825,,Active,,,https://www.redfin.com/WA/Seattle/12712-10th-Ave-NE-98125/home/114811,NWMLS,2013247,N,Y,47.7218756,-122.3173305
MLS Listing,,Townhouse,1530 Sturgus Ave S Unit B,Seattle,WA,98144,729888,3,2.5,N Beacon Hill,1525,1195,2005,19,479,,Active,,,https://www.redfin.com/WA/Seattle/1530-Sturgus-Ave-S-98144/unit-B/home/2085797,NWMLS,2014179,N,Y,47.5891305,-122.3114393
MLS Listing,,Single Family Residential,3635 23rd Ave W,Seattle,WA,98199,749950,5,2.0,Magnolia,2980,7000,1906,20,252,,Active,,,https://www.redfin.com/WA/Seattle/3635-23rd-Ave-W-98199/home/123856,NWMLS,2013543,N,Y,47.6531649,-122.3863225
MLS Listing,,Vacant Land,8821 9th Ave E,Tacoma,WA,98445,264900,,,Tacoma,,98881,,25,,,Active,,,https://www.redfin.com/WA/Tacoma/8821-9th-Ave-E-98445/home/2625282,NWMLS,2011944,N,Y,47.1761078,-122.4187104
MLS Listing,,Single Family Residential,6437 S Verde St,Tacoma,WA,98409,365000,3,1.0,Manitou,968,6800,1913,28,377,,Active,,,https://www.redfin.com/WA/Tacoma/6437-S-Verde-St-98409/home/2909761,NWMLS,2008290,N,Y,47.1981265,-122.4966731
MLS Listing,,Single Family Residential,224 S 37th St,Tacoma,WA,98418,405000,3,1.0,Lincoln,1560,6100,1924,29,260,,Active,,,https://www.redfin.com/WA/Tacoma/224-S-37th-St-98418/home/2962325,NWMLS,2010644,N,Y,47.2244827,-122.4354243
MLS Listing,,Condo/Co-op,590 1st Ave S #701,Seattle,WA,98104,649000,1,1.0,Pioneer Square,844,,2018,33,769,944,Active,,,https://www.redfin.com/WA/Seattle/590-1st-Ave-S-98104/unit-701/home/144758699,NWMLS,2008529,N,Y,47.5959742,-122.3336151
MLS Listing,,Townhouse,9205 Greenwood Ave N Unit A,Seattle,WA,98103,649950,2,2.5,Greenwood,1459,895,2022,35,445,,Active,,,https://www.redfin.com/WA/Seattle/9205-Greenwood-Ave-N-98103/unit-A/home/179124379,NWMLS,2008610,N,Y,47.6963205,-122.3556661
MLS Listing,,Single Family Residential,10705 55th Ave S,Seattle,WA,98178,475000,3,1.0,Skyway,1010,7100,1956,40,470,,Active,,,https://www.redfin.com/WA/Seattle/10705-55th-Ave-S-98178/home/178103,NWMLS,2006486,N,Y,47.504574,-122.2651396
MLS Listing,,Vacant Land,1513 Magnolia Blvd W,Seattle,WA,98199,525000,,,Magnolia,,8724,,43,,,Active,,,https://www.redfin.com/WA/Seattle/1513-Magnolia-Blvd-W-98199/home/178960869,NWMLS,2005729,N,Y,47.6352545,-122.3993939
MLS Listing,,Condo/Co-op,1711 E Olive Way #104,Seattle,WA,98102,635000,2,2.0,Capitol Hill,970,,2006,47,655,722,Active,,,https://www.redfin.com/WA/Seattle/1711-E-Olive-Way-98122/unit-104/home/2119337,NWMLS,2003611,N,Y,47.619744,-122.3230427
MLS Listing,,Multi-Family (2-4 Unit),508 510 136th St E,Tacoma,WA,98445,829950,9,5.0,Brookdale,3788,22564,1994,53,219,,Active,,,https://www.redfin.com/WA/Tacoma/510-136th-St-E-98445/home/2981748,NWMLS,2002602,N,Y,47.13253,-122.425031
MLS Listing,,Single Family Residential,6626 S Fife St,Tacoma,WA,98409,450000,4,3.0,South Tacoma,1540,6000,2012,53,292,,Active,,,https://www.redfin.com/WA/Tacoma/6626-S-Fife-St-98409/home/22779579,NWMLS,2001393,N,Y,47.19636,-122.4713026
MLS Listing,,Single Family Residential,12719 Waller Rd E,Tacoma,WA,98446,380000,3,2.0,Summit,1531,15146,1999,74,248,,Active,,,https://www.redfin.com/WA/Tacoma/12719-Waller-Rd-E-98446/home/2563618,NWMLS,1993289,N,Y,47.1405103,-122.3887402
MLS Listing,,Vacant Land,542 N 104th St,Seattle,WA,98133,399950,,,Greenwood,,3844,,75,,,Active,,,https://www.redfin.com/WA/Seattle/542-N-104th-St-98133/home/99352,NWMLS,1993604,N,Y,47.7045568,-122.3509539
MLS Listing,,Condo/Co-op,2201 3rd Ave #1402,Seattle,WA,98121,439950,1,1.0,Belltown,591,,1979,75,744,690,Active,,,https://www.redfin.com/WA/Seattle/2201-3rd-Ave-98121/unit-1402/home/18969,NWMLS,1992097,N,Y,47.6139031,-122.3440384
MLS Listing,,Condo/Co-op,522 W Mercer Pl #304,Seattle,WA,98119,575000,2,2.0,Queen Anne,1015,,1987,75,567,827,Active,,,https://www.redfin.com/WA/Seattle/522-W-Mercer-Pl-98119/unit-304/home/64893,NWMLS,1990547,N,Y,47.6250281,-122.3639043
MLS Listing,,Vacant Land,3327 N Baltimore St,Tacoma,WA,98407,375000,,,Tacoma,,6843,,131,,,Active,,,https://www.redfin.com/WA/Tacoma/3327-N-Baltimore-St-98407/home/180527309,NWMLS,1963664,N,Y,47.2788197,-122.5073561
MLS Listing,,Single Family Residential,4826 E K St,Tacoma,WA,98404,429950,3,2.0,Tacoma,1456,7500,1968,167,295,,Active,,,https://www.redfin.com/WA/Tacoma/4826-E-K-St-98404/home/2943781,NWMLS,1943684,N,Y,47.2124477,-122.4153062
