SALE TYPE,SOLD DATE,PROPERTY TYPE,ADDRESS,CITY,STATE OR PROVINCE,ZIP OR POSTAL CODE,PRICE,BEDS,BATHS,LOCATION,SQUARE FEET,LOT SIZE,YEAR BUILT,DAYS ON MARKET,$/SQUARE FEET,HOA/MONTH,STATUS,NEXT OPEN HOUSE START TIME,NEXT OPEN HOUSE END TIME,URL (SEE https://www.redfin.com/buy-a-home/comparative-market-analysis FOR INFO ON PRICING),SOURCE,MLS#,FAVORITE,INTERESTED,LATITUDE,LONGITUDE
MLS Listing,,Single Family Residential,213 S 80th St,Tacoma,WA,98408,640000,4,3.0,Tacoma,2113,4815,2022,35,303,,Active,February-12-2023 11:00 AM,February-12-2023 01:00 PM,https://www.redfin.com/WA/Tacoma/213-S-80th-St-98408/home/179834635,NWMLS,2024858,N,Y,47.1848306,-122.434906
MLS Listing,,Single Family Residential,4207 S Spencer St,Seattle,WA,98118,600000,4,1.0,Hillman City,1500,6180,1909,8,400,,Active,,,https://www.redfin.com/WA/Seattle/4207-S-Spencer-St-98118/home/172843,NWMLS,2031996,N,Y,47.5472065,-122.2803248
MLS Listing,,Condo/Co-op,323 Queen Anne Ave N #511,Seattle,WA,98109,460000,1,1.0,Queen Anne,684,21600,1999,18,673,587,Active,,,https://www.redfin.com/WA/Seattle/323-Queen-Anne-Ave-N-98109/unit-511/home/2115973,NWMLS,2029237,N,Y,47.6217302,-122.3570297
MLS Listing,,Single Family Residential,805 23rd Ave,Seattle,WA,98122,950000,3,3.0,Central Area,2550,3096,1900,19,373,,Active,,,https://www.redfin.com/WA/Seattle/805-23rd-Ave-98122/home/142287,NWMLS,2029562,N,Y,47.6092549,-122.3030333
MLS Listing,,Single Family Residential,423 Cherry St E,Tacoma,WA,98445,470000,3,2.5,Parkland,1678,12225,1991,20,280,24,Active,,,https://www.redfin.com/WA/Tacoma/423-Cherry-St-E-98445/home/2862344,NWMLS,2029386,N,Y,47.1259095,-122.4254862
MLS Listing,,Single Family Residential,2560 Gilman Dr W,Seattle,WA,98119,685000,3,1.0,Queen Anne,1300,4575,1904,21,527,,Active,,,https://www.redfin.com/WA/Seattle/2560-Gilman-Dr-W-98119/home/134711,NWMLS,2024600,N,Y,47.6422732,-122.3753464
MLS Listing,,Single Family Residential,5340 N 48th St,Tacoma,WA,98407,465000,2,1.0,North Tacoma,967,5534,1948,22,481,,Active,February-11-2023 03:00 PM,February-11-2023 05:00 PM,https://www.redfin.com/WA/Tacoma/5340-N-48th-St-98407/home/2942381,NWMLS,2028951,N,Y,47.2928029,-122.5098279
MLS Listing,,Single Family Residential,10031 61st Ave S,Seattle,WA,98178,699950,5,3.5,Upper Rainier Beach,2100,5107,1999,22,333,,Active,,,https://www.redfin.com/WA/Seattle/10031-61st-Ave-S-98178/home/176907,NWMLS,2027789,N,Y,47.5107611,-122.2573926
MLS Listing,,Single Family Residential,9323 Forest Ct SW,Seattle,WA,98136,965000,4,2.0,Fauntleroy,2118,10080,1952,23,456,,Active,February-11-2023 11:00 AM,February-11-2023 01:00 PM,https://www.redfin.com/WA/Seattle/9323-Forest-Ct-SW-98136/home/155604,NWMLS,2028436,N,Y,47.5191105,-122.3858752
MLS Listing,,Townhouse,224 18th Ave,Seattle,WA,98122,839000,2,2.0,Capitol Hill,1335,1481,2021,23,628,109,Active,,,https://www.redfin.com/WA/Seattle/224-18th-Ave-98122/home/2092801,NWMLS,2021857,N,Y,47.6039143,-122.308807
MLS Listing,,Townhouse,4121 42nd Ave SW Unit A,Seattle,WA,98116,785000,3,2.5,Alaska Junction,1470,1436,2006,23,534,,Active,February-11-2023 01:00 PM,February-11-2023 03:00 PM,https://www.redfin.com/WA/Seattle/4121-42nd-Ave-SW-98116/unit-A/home/8190301,NWMLS,2028210,N,Y,47.5657774,-122.385962
MLS Listing,,Single Family Residential,10023 Waters Ave S,Seattle,WA,98118,559950,1,1.0,Upper Rainier Beach,950,3430,1949,29,589,,Active,,,https://www.redfin.com/WA/Seattle/10023-Waters-Ave-S-98178/home/176357,NWMLS,2026493,N,Y,47.5113673,-122.2516494
MLS Listing,,Single Family Residential,4305 S Puget Sound Ave,Tacoma,WA,98409,375000,3,2.0,Tacoma,1802,3250,2001,34,208,,Active,,,https://www.redfin.com/WA/Tacoma/4305-S-Puget-Sound-Ave-98409/home/2750340,NWMLS,2025395,N,Y,47.218423,-122.4816248
MLS Listing,,Townhouse,3005 62nd Ave SW Unit B,Seattle,WA,98116,775000,2,2.0,Alki,1230,925,2018,35,630,,Active,February-11-2023 01:00 PM,February-11-2023 03:00 PM,https://www.redfin.com/WA/Seattle/3005-62nd-Ave-SW-98116/unit-B/home/146202739,NWMLS,2024045,N,Y,47.5774034,-122.4121822
MLS Listing,,Townhouse,10236 C 41st Ave SW #3,Seattle,WA,98146,549000,2,1.5,Arbor Heights,860,1716,2022,53,638,37,Active,February-11-2023 12:00 PM,February-11-2023 02:00 PM,https://www.redfin.com/WA/Seattle/10236-41st-Ave-SW-98146/unit-3/home/183153037,NWMLS,2017699,N,Y,47.5109043,-122.3841009
MLS Listing,,Single Family Residential,1723 S L St,Tacoma,WA,98405,432100,3,2.5,Hilltop,1176,1176,2007,56,367,,Active,,,https://www.redfin.com/WA/Tacoma/1723-S-L-St-98405/home/12408667,NWMLS,2022782,N,Y,47.2448409,-122.4512996
MLS Listing,,Single Family Residential,4821 S Austin St,Seattle,WA,98118,649950,2,2.0,Seattle,1200,5000,1939,76,542,,Active,,,https://www.redfin.com/WA/Seattle/4821-S-Austin-St-98118/home/174301,NWMLS,2019059,N,Y,47.5344565,-122.2716883
MLS Listing,,Single Family Residential,5002 E L St,Tacoma,WA,98404,478000,3,2.0,East Tacoma,1900,7068,1970,104,252,,Active,February-11-2023 01:00 PM,February-11-2023 03:00 PM,https://www.redfin.com/WA/Tacoma/5002-E-L-St-98404/home/2935349,NWMLS,2012551,N,Y,47.2115311,-122.413771
MLS Listing,,Condo/Co-op,2325 Harbor Ave SW Unit A3,Seattle,WA,98126,769000,3,2.5,Alki,2025,,1997,106,380,500,Active,February-11-2023 12:00 PM,February-11-2023 02:00 PM,https://www.redfin.com/WA/Seattle/2325-Harbor-Ave-SW-98126/unit-A3/home/47828,NWMLS,2004065,N,Y,47.5823046,-122.3749849
MLS Listing,,Townhouse,4801 Dayton Ave N Unit B,Seattle,WA,98103,725000,2,2.0,Fremont,1390,639,2022,236,522,35,Active,February-11-2023 11:00 AM,February-11-2023 02:00 PM,https://www.redfin.com/WA/Seattle/4801-Dayton-Ave-N-98103/unit-B/home/173648945,NWMLS,1939986,N,Y,47.6637085,-122.35289
MLS Listing,,Condo/Co-op,3217 Eastlake Ave E #307,Seattle,WA,98102,585000,2,2.0,Eastlake,1003,,2004,246,583,528,Active,,,https://www.redfin.com/WA/Seattle/3217-Eastlake-Ave-E-98102/unit-307/home/24639,NWMLS,1943437,N,Y,47.6511005,-122.3219767
MLS Listing,,Townhouse,1717 C 14th Ave,Seattle,WA,98122,819900,2,2.0,Capitol Hill,1188,643,2022,284,690,,Active,February-11-2023 02:00 PM,February-11-2023 04:00 PM,https://www.redfin.com/WA/Seattle/1717-14th-Ave-98122/home/181961301,NWMLS,1923945,N,Y,47.6169982,-122.3145395
MLS Listing,,Townhouse,716 C 11th Ave E,Seattle,WA,98102,719900,2,2.0,Capitol Hill,1009,1008,2023,381,713,47,Active,February-10-2023 03:00 PM,February-10-2023 05:00 PM,https://www.redfin.com/WA/Seattle/716-11th-Ave-E-98102/home/174999231,NWMLS,1881882,N,Y,47.6258292,-122.3176514
