SALE TYPE,SOLD DATE,PROPERTY TYPE,ADDRESS,CITY,STATE OR PROVINCE,ZIP OR POSTAL CODE,PRICE,BEDS,BATHS,LOCATION,SQUARE FEET,LOT SIZE,YEAR BUILT,DAYS ON MARKET,$/SQUARE FEET,HOA/MONTH,STATUS,NEXT OPEN HOUSE START TIME,NEXT OPEN HOUSE END TIME,URL (SEE https://www.redfin.com/buy-a-home/comparative-market-analysis FOR INFO ON PRICING),SOURCE,MLS#,FAVORITE,INTERESTED,LATITUDE,LONGITUDE
MLS Listing,,Condo/Co-op,1012 S 27th St Unit A203,Tacoma,WA,98409,250000,2,1.0,Central Tacoma,790,,1968,7,316,536,Active,,,https://www.redfin.com/WA/Tacoma/1012-S-27th-St-98409/unit-A203/home/16888257,NWMLS,2030786,N,Y,47.2354089,-122.4475392
MLS Listing,,Vacant Land,3408 58th Street Ct E,Tacoma,WA,98443,329900,,,Tacoma,,60984,,23,,,Active,,,https://www.redfin.com/WA/Tacoma/3408-58th-Street-Ct-E-98443/home/23054237,NWMLS,2026351,N,Y,47.2033872,-122.3833028
MLS Listing,,Condo/Co-op,2319 1st Ave #702,Seattle,WA,98121,629000,1,1.0,Belltown,906,,2000,23,694,605,Active,February-4-2023 02:00 PM,February-4-2023 04:00 PM,https://www.redfin.com/WA/Seattle/2319-1st-Ave-98121/unit-702/home/3017,NWMLS,2022305,N,Y,47.6136631,-122.3472978
MLS Listing,,Single Family Residential,1220 S Union Ave,Tacoma,WA,98405,344000,2,1.0,Central Tacoma,905,3528,1919,8,380,,Active,,,https://www.redfin.com/WA/Tacoma/1220-S-Union-Ave-98405/home/2451874,NWMLS,2030260,N,Y,47.2493085,-122.4838954
MLS Listing,,Townhouse,4507 Woodland Park Ave N Unit A,Seattle,WA,98103,749500,2,2.5,Wallingford,1310,1140,2008,11,572,,Active,February-4-2023 12:00 PM,February-4-2023 02:00 PM,https://www.redfin.com/WA/Seattle/4507-Woodland-Park-Ave-N-98103/unit-A/home/17381821,NWMLS,2029677,N,Y,47.6616968,-122.3448861
MLS Listing,,Townhouse,9025 17th Ave SW Unit A,Seattle,WA,98106,599950,3,2.0,Westwood,1502,900,2022,13,399,,Active,February-4-2023 12:30 PM,February-4-2023 01:30 PM,https://www.redfin.com/WA/Seattle/9025-17th-Ave-SW-98106/unit-A/home/183886315,NWMLS,2028673,N,Y,47.5220443,-122.3566669
MLS Listing,,Single Family Residential,3221 23rd Ave S,Seattle,WA,98144,899000,6,2.0,Beacon Hill,3310,7618,1962,21,272,,Active,,,https://www.redfin.com/WA/Seattle/3221-23rd-Ave-S-98144/home/168226,NWMLS,2027754,N,Y,47.5744581,-122.3036485
MLS Listing,,Single Family Residential,8324 29th Ave NW,Seattle,WA,98117,898000,3,2.0,Ballard,2440,6250,1953,22,368,,Active,,,https://www.redfin.com/WA/Seattle/8324-29th-Ave-NW-98117/home/165339,NWMLS,2026349,N,Y,47.6894291,-122.3940996
MLS Listing,,Single Family Residential,4305 S Puget Sound Ave,Tacoma,WA,98409,398000,3,2.0,Tacoma,1802,3250,2001,27,221,,Active,,,https://www.redfin.com/WA/Tacoma/4305-S-Puget-Sound-Ave-98409/home/2750340,NWMLS,2025395,N,Y,47.218423,-122.4816248
MLS Listing,,Single Family Residential,8718 19th Ave NW,Seattle,WA,98117,924950,4,2.0,Crown Hill,1370,4000,1948,29,675,,Active,February-5-2023 01:00 PM,February-5-2023 03:00 PM,https://www.redfin.com/WA/Seattle/8718-19th-Ave-NW-98117/home/101626,NWMLS,2024619,N,Y,47.6929798,-122.3808574
MLS Listing,,Single Family Residential,5515 Bangor St,Seattle,WA,98178,699000,3,3.0,Hillman City,1990,4500,1951,29,351,,Active,,,https://www.redfin.com/WA/Seattle/5515-S-Bangor-St-98178/home/178202,NWMLS,2025238,N,Y,47.5059357,-122.2640531
MLS Listing,,Single Family Residential,4302 S Puget Sound Ave,Tacoma,WA,98409,399000,3,2.0,South Tacoma,1050,6500,1939,29,380,,Active,,,https://www.redfin.com/WA/Tacoma/4302-S-Puget-Sound-Ave-98409/home/2750309,NWMLS,2025599,N,Y,47.2185416,-122.4823231
MLS Listing,,Single Family Residential,415 116th St S,Tacoma,WA,98444,479950,3,2.5,Parkland,1525,5000,1992,30,315,,Active,February-4-2023 12:00 PM,February-4-2023 02:00 PM,https://www.redfin.com/WA/Tacoma/415-116th-St-S-98444/home/2723895,NWMLS,2024096,N,Y,47.1513874,-122.4379213
MLS Listing,,Single Family Residential,4631 N Gove St,Tacoma,WA,98407,785000,3,2.0,North Tacoma,1647,7200,1972,33,477,,Active,February-4-2023 01:00 PM,February-4-2023 05:00 PM,https://www.redfin.com/WA/Tacoma/4631-N-Gove-St-98407/home/2914803,NWMLS,2024516,N,Y,47.2919483,-122.4995086
MLS Listing,,Single Family Residential,4706 4TH Ave NE,Seattle,WA,98105,799000,2,2.5,Wallingford,1340,4080,1911,48,596,,Active,,,https://www.redfin.com/WA/Seattle/4706-4th-Ave-NE-98105/home/118450,NWMLS,2022680,N,Y,47.6634106,-122.3236706
MLS Listing,,Condo/Co-op,530 Melrose Ave E #305,Seattle,WA,98102,388000,1,1.0,Capitol Hill,576,,1991,56,674,515,Active,February-5-2023 01:00 PM,February-5-2023 03:00 PM,https://www.redfin.com/WA/Seattle/530-Melrose-Ave-E-98102/unit-305/home/65472,NWMLS,2021481,N,Y,47.6240242,-122.3275118
MLS Listing,,Condo/Co-op,121 Stewart St #1007,Seattle,WA,98101,699000,1,1.0,Downtown,758,,2020,59,922,690,Active,February-4-2023 12:00 AM,February-4-2023 11:59 PM,https://www.redfin.com/WA/Seattle/121-Stewart-St-98101/unit-1007/home/175699628,NWMLS,2021177,N,Y,47.6106852,-122.3406126
MLS Listing,,Single Family Residential,35715 20th Ave SW,Federal Way,WA,98023,959000,5,3.0,Federal Way,3532,9612,2016,64,272,,Active,,,https://www.redfin.com/WA/Federal-Way/35715-20th-Ave-SW-98023/home/59703088,NWMLS,2015425,N,Y,47.2813488,-122.3602527
MLS Listing,,Townhouse,8617 Delridge Way SW Unit A,Seattle,WA,98016,479900,3,2.5,Delridge,1270,1312,2003,65,378,,Active,February-4-2023 12:00 PM,February-4-2023 02:00 PM,https://www.redfin.com/WA/Seattle/8617-Delridge-Way-SW-98106/unit-A/home/472531,NWMLS,2019538,N,Y,47.5259546,-122.3610133
MLS Listing,,Condo/Co-op,1760 NW 56th St #122,Seattle,WA,98107,500000,1,1.0,Ballard,746,,2016,78,670,364,Active,,,https://www.redfin.com/WA/Seattle/1760-NW-56th-St-98107/unit-122/home/109661785,NWMLS,2017757,N,Y,47.6695995,-122.3812494
MLS Listing,,Condo/Co-op,420 Valley St Unit W309,Seattle,WA,98109,285900,0,1.0,Queen Anne,268,12001,1991,78,1067,201,Active,February-4-2023 03:00 PM,February-4-2023 05:00 PM,https://www.redfin.com/WA/Seattle/420-Valley-St-98109/unit-W309/home/5382,NWMLS,2016414,N,Y,47.6264675,-122.347953
MLS Listing,,Condo/Co-op,1000 Union St #217,Seattle,WA,98101,349000,1,1.0,First Hill,528,,1965,101,661,437,Active,February-4-2023 02:30 AM,February-4-2023 04:30 PM,https://www.redfin.com/WA/Seattle/1000-Union-St-98101/unit-217/home/57375,NWMLS,2009816,N,Y,47.6123139,-122.329039
MLS Listing,,Single Family Residential,3906 S Pilgrim St,Seattle,WA,98118,525000,5,3.0,Beacon Hill,1731,6250,1980,102,303,,Active,,,https://www.redfin.com/WA/Seattle/3906-S-Pilgrim-St-98118/home/479893,NWMLS,2010907,N,Y,47.515999,-122.2843396
MLS Listing,,Single Family Residential,8222 S Sheridan Ave,Tacoma,WA,98408,439950,3,1.5,South Tacoma,1871,12150,1967,106,235,,Active,,,https://www.redfin.com/WA/Tacoma/8222-S-Sheridan-Ave-98408/home/2614651,NWMLS,1988451,N,Y,47.1819435,-122.4529807
MLS Listing,,Condo/Co-op,121 Stewart St #2202,Seattle,WA,98101,799000,1,1.0,Belltown,948,,2020,107,843,863,Active,February-5-2023 10:00 AM,February-5-2023 12:00 PM,https://www.redfin.com/WA/Seattle/121-Stewart-St-98101/unit-2202/home/175699719,NWMLS,2008350,N,Y,47.6106852,-122.3406126
MLS Listing,,Condo/Co-op,2720 3rd Ave #314,Seattle,WA,98121,739000,1,1.0,Belltown,983,,2008,112,752,831,Active,,,https://www.redfin.com/WA/Seattle/2720-3rd-Ave-98121/unit-314/home/12538133,NWMLS,2007539,N,Y,47.6176129,-122.349048
MLS Listing,,Single Family Residential,1401 Garfield St S,Tacoma,WA,98444,380000,3,1.5,Parkland,1056,7500,1954,115,360,,Active,,,https://www.redfin.com/WA/Tacoma/1401-Garfield-St-S-98444/home/2987497,NWMLS,2005668,N,Y,47.1465383,-122.4531833
MLS Listing,,Condo/Co-op,1525 NW 57th St #231,Seattle,WA,98107,404500,0,1.0,Ballard,517,39803,2000,120,782,313,Active,,,https://www.redfin.com/WA/Seattle/1525-NW-57th-St-98107/unit-231/home/36393,NWMLS,2003334,N,Y,47.6699149,-122.3774767
MLS Listing,,Townhouse,1121 Sturgus Ave S Unit B,Seattle,WA,98144,745000,3,2.5,N Beacon Hill,1460,1146,2006,121,510,,Active,,,https://www.redfin.com/WA/Seattle/1121-Sturgus-Ave-S-98144/unit-B/home/18658393,NWMLS,2004090,N,Y,47.5923617,-122.3134017
MLS Listing,,Condo/Co-op,121 Stewart St #2904,Seattle,WA,98101,779000,1,1.0,Downtown,773,,2020,125,1008,702,Active,February-4-2023 12:00 PM,February-4-2023 03:00 PM,https://www.redfin.com/WA/Seattle/121-Stewart-St-98101/unit-2904/home/175699777,NWMLS,2002882,N,Y,47.6106852,-122.3406126
MLS Listing,,Townhouse,3715 S Holly Park Dr,Seattle,WA,98118,529950,2,2.5,Beacon Hill,1134,,2006,126,467,557,Active,,,https://www.redfin.com/WA/Seattle/3715-S-Holly-Park-Dr-98118/home/17081338,NWMLS,1995742,N,Y,47.5363082,-122.2859021
MLS Listing,,Single Family Residential,841 S Sullivan,Seattle,WA,98108,747000,6,2.0,South Park,2180,6000,1911,134,343,,Active,,,https://www.redfin.com/WA/Seattle/841-S-Sullivan-St-98108/home/477553,NWMLS,1999132,N,Y,47.5271415,-122.3210965
MLS Listing,,Condo/Co-op,2309 10th Ave E Unit D,Seattle,WA,98102,550000,2,1.0,North Capitol Hill,1013,,1910,149,543,375,Active,,,https://www.redfin.com/WA/Seattle/2309-10th-Ave-E-98102/unit-D/home/181488810,NWMLS,1992089,N,Y,47.6399042,-122.3204795
MLS Listing,,Single Family Residential,703 115th St E,Tacoma,WA,98444,410000,3,2.5,Tacoma,1526,2393,2005,177,269,118,Active,,,https://www.redfin.com/WA/Tacoma/703-115th-St-E-98445/home/3032007,NWMLS,1980167,N,Y,47.1529799,-122.4219212
MLS Listing,,Condo/Co-op,76 Cedar St #808,Seattle,WA,98121,725000,2,2.0,Belltown,1017,27840,2008,329,713,820,Active,,,https://www.redfin.com/WA/Seattle/76-Cedar-St-98121/unit-808/home/12538258,NWMLS,1899288,N,Y,47.6154195,-122.3515839
