SALE TYPE,SOLD DATE,PROPERTY TYPE,ADDRESS,CITY,STATE OR PROVINCE,ZIP OR POSTAL CODE,PRICE,BEDS,BATHS,LOCATION,SQUARE FEET,LOT SIZE,YEAR BUILT,DAYS ON MARKET,$/SQUARE FEET,HOA/MONTH,STATUS,NEXT OPEN HOUSE START TIME,NEXT OPEN HOUSE END TIME,URL (SEE https://www.redfin.com/buy-a-home/comparative-market-analysis FOR INFO ON PRICING),SOURCE,MLS#,FAVORITE,INTERESTED,LATITUDE,LONGITUDE
MLS Listing,,Condo/Co-op,3045 20th Ave W #205,Seattle,WA,98199,320000,1,1.0,Magnolia,510,,1988,1,627,273,Active,,,https://www.redfin.com/WA/Seattle/3045-20th-Ave-W-98199/unit-205/home/12306187,NWMLS,1938871,N,Y,47.6479092,-122.382403
MLS Listing,,Single Family Residential,18809 30th Ave E,Tacoma,WA,98446,809950,4,3.0,Frederickson,2800,65340,1979,1,289,,Active,,,https://www.redfin.com/WA/Tacoma/18809-30th-Ave-E-98446/home/2584063,NWMLS,1936413,N,Y,47.0854821,-122.389495
MLS Listing,,Condo/Co-op,3401 Albion Pl N #6,Seattle,WA,98103,470000,1,1.0,Fremont,714,8057,1967,1,658,250,Active,May-29-2022 12:00 PM,May-29-2022 03:00 PM,https://www.redfin.com/WA/Seattle/3401-Albion-Pl-N-98103/unit-6/home/45687,NWMLS,1936673,N,Y,47.6490304,-122.3449697
MLS Listing,,Single Family Residential,3577 E Grandview Ave,Tacoma,WA,98404,725000,5,3.5,Tacoma,1994,15807,2020,1,364,,Active,,,https://www.redfin.com/WA/Tacoma/3577-E-Grandview-Ave-98404/home/144242755,NWMLS,1934754,N,Y,47.227547,-122.395036
MLS Listing,,Single Family Residential,851 S 96th St,Tacoma,WA,98444,549000,2,2.0,Parkland,1757,40946,1980,1,312,,Active,,,https://www.redfin.com/WA/TACOMA/851-S-96TH-ST-98444/home/2616776,NWMLS,1934021,N,Y,47.170886,-122.446309
MLS Listing,,Single Family Residential,9241 34th Ave SW,Seattle,WA,98126,700000,3,1.0,Westwood,1040,8880,1953,1,673,,Active,,,https://www.redfin.com/WA/Seattle/9241-34th-Ave-SW-98126/home/473414,NWMLS,1914667,N,Y,47.5197752,-122.3757739
MLS Listing,,Single Family Residential,1168 90th St E,Tacoma,WA,98445,574950,3,2.0,Parkland,1665,43560,1958,1,345,,Active,,,https://www.redfin.com/WA/Tacoma/1168-90th-St-E-98445/home/2625012,NWMLS,1938857,N,Y,47.1755676,-122.4131728
PAST SALE,,Condo/Co-op,2510 6th Ave #1410,Seattle,WA,98121,950000,1,1.0,Denny Triangle,985,,2021,1,964,912,Pending,,,https://www.redfin.com/WA/Seattle/2510-6th-Ave-98121/unit-1410/home/179556898,NWMLS,1938916,N,Y,47.6182832,-122.344644
