SALE TYPE,SOLD DATE,PROPERTY TYPE,ADDRESS,CITY,STATE OR PROVINCE,ZIP OR POSTAL CODE,PRICE,BEDS,BATHS,LOCATION,SQUARE FEET,LOT SIZE,YEAR BUILT,DAYS ON MARKET,$/SQUARE FEET,HOA/MONTH,STATUS,NEXT OPEN HOUSE START TIME,NEXT OPEN HOUSE END TIME,URL (SEE https://www.redfin.com/buy-a-home/comparative-market-analysis FOR INFO ON PRICING),SOURCE,MLS#,FAVORITE,INTERESTED,LATITUDE,LONGITUDE
PAST SALE,July-3-2012,Single Family Residential,5069 25th Ave SW,Seattle,WA,98106,910000,3,1.5,Delridge,1620,7920,2008,1,562,,Pending,,,https://www.redfin.com/WA/Seattle/5069-25th-Ave-SW-98106/home/159116,NWMLS,2013335,N,Y,47.5554889,-122.3646412
MLS Listing,,Single Family Residential,6612 E E St,Tacoma,WA,98404,449900,3,2.0,South Tacoma,2206,20000,1954,1,204,,Active,,,https://www.redfin.com/WA/Tacoma/6612-East-E-St-98404/home/2971149,NWMLS,2014612,N,Y,47.1965566,-122.4246956
MLS Listing,,Single Family Residential,10503 12th Ave NW,Seattle,WA,98177,989000,2,2.0,Blue Ridge,1720,7104,1946,1,575,,Active,,,https://www.redfin.com/WA/Seattle/10503-12th-Ave-NW-98177/home/288593,NWMLS,2014890,N,Y,47.705347,-122.371705
MLS Listing,,Single Family Residential,209 N 90th St,Seattle,WA,98103,775000,3,1.0,Greenwood,1066,5574,1920,1,727,,Active,,,https://www.redfin.com/WA/Seattle/209-N-90th-St-98103/home/40237080,NWMLS,2014896,N,Y,47.6940262,-122.3561583
PAST SALE,July-20-2021,Townhouse,918 N 100th St,Seattle,WA,98133,549755,2,1.5,Seattle,900,,2022,1,611,58,Pending,,,https://www.redfin.com/WA/Seattle/918-N-100th-St-98133/home/99867,NWMLS,2014878,N,Y,47.7016197,-122.3464942
PAST SALE,,Townhouse,914 N 100th St,Seattle,WA,98133,549755,2,1.5,Seattle,900,,2022,1,611,58,Pending,,,https://www.redfin.com/WA/Seattle/914-N-100th-St-98133/home/182702396,NWMLS,2014874,N,Y,47.7016482,-122.3472131
MLS Listing,,Single Family Residential,11451 71 Pl S,Seattle,WA,98178,489900,2,1.0,Lakeridge,1620,6600,1945,1,302,,Active,,,https://www.redfin.com/WA/Seattle/11451-71st-Pl-S-98178/home/175660,NWMLS,2013919,N,Y,47.5002886,-122.2460456
MLS Listing,,Condo/Co-op,2121 Westlake Ave N #301,Seattle,WA,98109,930000,2,2.0,Lake Union,1231,,1984,1,755,489,Active,,,https://www.redfin.com/WA/Seattle/2121-Westlake-Ave-N-98109/unit-301/home/103959640,NWMLS,2014652,N,Y,47.6388596,-122.3416129
MLS Listing,,Single Family Residential,16716 36th Ave E,Tacoma,WA,98446,335000,3,1.0,Spanaway,1438,21780,1939,1,233,,Active,,,https://www.redfin.com/WA/Tacoma/16716-36th-Ave-E-98446/home/2577654,NWMLS,2014832,N,Y,47.1038352,-122.3813249
PAST SALE,October-3-2005,Single Family Residential,6328 PACIFIC Ave,Tacoma,WA,98408,530000,4,2.0,South Tacoma,1909,9318,1945,1,278,,Pending,,,https://www.redfin.com/WA/Tacoma/6328-Pacific-Ave-98408/home/2915981,NWMLS,2014657,N,Y,47.1997152,-122.4343099
MLS Listing,,Single Family Residential,990 20 Ave,Seattle,WA,98122,779999,2,2.0,Central Area,1860,3750,1900,1,419,,Active,,,https://www.redfin.com/WA/Seattle/990-20th-Ave-98122/home/142648,NWMLS,2014379,N,Y,47.6125971,-122.3059386
MLS Listing,,Condo/Co-op,201 Galer St #365,Seattle,WA,98109,499000,1,1.0,Queen Anne,720,,1908,2,693,731,Active,,,https://www.redfin.com/WA/Seattle/201-Galer-St-98109/unit-365/home/8190200,NWMLS,2014723,N,Y,47.6319635,-122.3520375
PAST SALE,,Condo/Co-op,2510 6th Ave #810,Seattle,WA,98121,767000,1,1.0,Denny Triangle,985,,2021,1,779,912,Pending,,,https://www.redfin.com/WA/Seattle/2510-6th-Ave-98121/unit-810/home/182667668,NWMLS,2014722,N,Y,47.6182832,-122.344644
MLS Listing,,Single Family Residential,3003 S Proctor St,Tacoma,WA,98409,299000,2,1.0,Oakland,1012,6002,1925,2,295,,Active,,,https://www.redfin.com/WA/Tacoma/3003-S-Proctor-St-98409/home/2940478,NWMLS,2014707,N,Y,47.2330379,-122.4882419
PAST SALE,,Townhouse,974 N Allen Pl,Seattle,WA,98103,740000,2,2.0,Wallingford,1036,856,2022,1,714,,Pending,,,https://www.redfin.com/WA/Seattle/974-N-Allen-Pl-98103/home/182644547,NWMLS,2007226,N,Y,47.6606961,-122.3458763
PAST SALE,October-30-2018,Condo/Co-op,600 N 85th St #209,Seattle,WA,98103,335000,1,1.0,Greenwood,553,,1999,1,606,365,Pending,,,https://www.redfin.com/WA/Seattle/600-N-85th-St-98103/unit-209/home/31813,NWMLS,2011576,N,Y,47.6907801,-122.3508792
PAST SALE,,Single Family Residential,7152 44th Ave S,Seattle,WA,98118,830500,3,3.0,Brighton,1731,1683,2022,1,480,,Pending,,,https://www.redfin.com/WA/Seattle/7152-44th-Ave-S-98118/home/182598452,NWMLS,2013152,N,Y,47.5375729,-122.278027
PAST SALE,September-30-2009,Single Family Residential,10744 Ashworth Ave N,Seattle,WA,98133,1000000,5,3.0,Licton Springs,2510,11960,1940,1,398,,Pending,,,https://www.redfin.com/WA/Seattle/10744-Ashworth-Ave-N-98133/home/104274,NWMLS,2009167,N,Y,47.7082318,-122.3388778
PAST SALE,,Single Family Residential,10828 12th Ave SW,Seattle,WA,98146,625000,4,3.0,White Center,2240,6754,1935,1,279,,Pending,,,https://www.redfin.com/WA/Seattle/10828-12th-Ave-SW-98146/home/183202,NWMLS,2010673,N,Y,47.5056575,-122.3496521
PAST SALE,February-19-2016,Single Family Residential,9341 54th Ave S,Seattle,WA,98118,545000,4,2.0,Rainier Beach,1595,5500,1904,1,342,,Pending,,,https://www.redfin.com/WA/Seattle/9341-54th-Ave-S-98118/home/176173,NWMLS,2012950,N,Y,47.5178469,-122.2654122
PAST SALE,,Townhouse,4701 Evanston Ave N,Seattle,WA,98103,735000,2,2.0,Fremont,968,865,2022,1,759,,Pending,,,https://www.redfin.com/WA/Seattle/4701-Evanston-Ave-N-98103/home/182493148,NWMLS,2011466,N,Y,47.6629502,-122.3514932
PAST SALE,,Townhouse,8039 B Mary Ave NW,Seattle,WA,98117,830000,3,2.0,Whittier,1415,846,2022,1,587,24,Pending,,,https://www.redfin.com/WA/Seattle/8039-Mary-Ave-NW-98117/home/182049419,NWMLS,2010785,N,Y,47.6880618,-122.375811
PAST SALE,July-26-2018,Condo/Co-op,4540 8th Ave NE #2101,Seattle,WA,98105,695000,3,2.0,University District,1450,,1974,1,479,1333,Pending,,,https://www.redfin.com/WA/Seattle/4540-8th-Ave-NE-98105/unit-2101/home/63684,NWMLS,2010157,N,Y,47.662897,-122.318835
PAST SALE,,Townhouse,4707 Evanston Ave N,Seattle,WA,98103,719950,2,2.0,Fremont,968,656,2022,1,744,,Pending,,,https://www.redfin.com/WA/Seattle/4707-Evanston-Ave-N-98103/home/182325714,NWMLS,2007732,N,Y,47.662997,-122.3517702
PAST SALE,,Townhouse,2433 S Plum St,Seattle,WA,98144,845990,2,3.5,Seattle,1708,,2022,1,495,200,Pending,,,https://www.redfin.com/WA/Seattle/2433-S-Plum-St-98144/home/177920508,NWMLS,2005598,N,Y,47.5853268,-122.3011747
PAST SALE,,Townhouse,8319 C 14th Ave NW,Seattle,WA,98117,710000,2,2.0,Ballard,1240,583,2022,1,573,,Pending,,,https://www.redfin.com/WA/Seattle/8319-14th-Ave-NW-98117/unit-C/home/178442579,NWMLS,1999086,N,Y,47.6893256,-122.3743349
PAST SALE,,Townhouse,4728 38th Ave S,Seattle,WA,98118,839950,3,2.5,Columbia City,1563,1950,2022,1,537,0,Pending,,,https://www.redfin.com/WA/Seattle/4728-38th-Ave-S-98118/home/181074194,NWMLS,1983794,N,Y,47.5599804,-122.2845636
PAST SALE,,Condo/Co-op,800 Columbia St #608,Seattle,WA,98104,674990,1,1.0,First Hill,576,,2023,1,1172,582,Pending,,,https://www.redfin.com/WA/Seattle/800-Columbia-St-98104/unit-608/home/174435463,NWMLS,1928429,N,Y,47.6067442,-122.3271536
PAST SALE,,Condo/Co-op,800 Columbia St #915,Seattle,WA,98104,598000,0,1.0,First Hill,539,,2023,1,1109,522,Pending,,,https://www.redfin.com/WA/Seattle/800-Columbia-St-98104/unit-915/home/179158881,NWMLS,1921461,N,Y,47.6067442,-122.3271536
PAST SALE,,Condo/Co-op,800 Columbia St #906,Seattle,WA,98104,649000,1,1.0,First Hill,601,,2023,1,1080,607,Pending,,,https://www.redfin.com/WA/Seattle/800-Columbia-St-98104/unit-906/home/179158876,NWMLS,1921467,N,Y,47.6067442,-122.3271536
PAST SALE,,Condo/Co-op,800 Columbia St #908,Seattle,WA,98104,681000,1,1.0,First Hill,607,,2023,1,1122,613,Pending,,,https://www.redfin.com/WA/Seattle/800-Columbia-St-98104/unit-908/home/179158874,NWMLS,1921462,N,Y,47.6067442,-122.3271536
PAST SALE,,Condo/Co-op,800 Columbia St #1507,Seattle,WA,98104,623000,1,1.0,First Hill,544,,2023,1,1145,550,Pending,,,https://www.redfin.com/WA/Seattle/800-Columbia-St-98104/unit-1507/home/179158865,NWMLS,1921443,N,Y,47.6067442,-122.3271536
PAST SALE,,Condo/Co-op,800 Columbia St #1701,Seattle,WA,98104,726000,1,1.0,First Hill,589,,2023,1,1233,595,Pending,,,https://www.redfin.com/WA/Seattle/800-Columbia-St-98104/unit-1701/home/179158864,NWMLS,1921438,N,Y,47.6067442,-122.3271536
PAST SALE,,Condo/Co-op,800 Columbia St #1506,Seattle,WA,98104,669000,1,1.0,First Hill,601,,2023,1,1113,607,Pending,,,https://www.redfin.com/WA/Seattle/800-Columbia-St-98104/unit-1506/home/179158863,NWMLS,1921447,N,Y,47.6067442,-122.3271536
PAST SALE,,Condo/Co-op,800 Columbia St #1501,Seattle,WA,98104,716000,1,1.0,First Hill,589,,2023,1,1216,595,Pending,,,https://www.redfin.com/WA/Seattle/800-Columbia-St-98104/unit-1501/home/179158862,NWMLS,1921458,N,Y,47.6067442,-122.3271536
PAST SALE,,Condo/Co-op,800 Columbia St #1707,Seattle,WA,98104,633000,1,1.0,First Hill,544,,2023,1,1164,550,Pending,,,https://www.redfin.com/WA/Seattle/800-Columbia-St-98104/unit-1707/home/179158856,NWMLS,1921432,N,Y,47.6067442,-122.3271536
PAST SALE,,Condo/Co-op,800 Columbia St #1715,Seattle,WA,98104,628000,0,1.0,First Hill,517,,2023,1,1215,522,Pending,,,https://www.redfin.com/WA/Seattle/800-Columbia-St-98104/unit-1715/home/179158850,NWMLS,1921426,N,Y,47.6067442,-122.3271536
PAST SALE,,Condo/Co-op,17610 26th Ave E #3,Tacoma,WA,98445,369950,3,2.5,Spanaway,1425,3376,2005,1,260,150,Pending,,,https://www.redfin.com/WA/Tacoma/17610-26th-Ave-E-98445/unit-3/home/12245933,NWMLS,1902902,N,Y,47.0961661,-122.3952727
PAST SALE,,Townhouse,8338 (NA-4) 13th Ave NW,Seattle,WA,98117,919900,3,2.0,Crown Hill,1652,500,2022,1,557,,Pending,,,https://www.redfin.com/WA/Seattle/8338-NA-4-13th-Ave-NW-98117/home/178300330,NWMLS,1875846,N,Y,47.689916,-122.372557
PAST SALE,,Townhouse,1424 NW 92nd St,Seattle,WA,98117,704900,2,2.0,Crown Hill,1164,1,2022,1,606,,Pending,,,https://www.redfin.com/WA/Seattle/1424-NW-92nd-St-98117/home/177708448,NWMLS,1874231,N,Y,47.6960682,-122.3745252
PAST SALE,,Townhouse,9206 Mary Ave NW,Seattle,WA,98117,729900,2,2.0,Crown Hill,1227,8280,2021,1,595,,Pending,,,https://www.redfin.com/WA/Seattle/9206-Mary-Ave-NW-98117/home/177153494,NWMLS,1863094,N,Y,47.6963227,-122.3750814
PAST SALE,,Townhouse,13250 65th Ave S Unit D20,Seattle,WA,98178,599800,3,2.5,Bryn Mawr,1750,1658,2021,1,343,180,Pending,,,https://www.redfin.com/WA/Seattle/13250-65th-Ave-S-98178/unit-D20/home/175264621,NWMLS,1785710,N,Y,47.4855317,-122.2531252
