SALE TYPE,SOLD DATE,PROPERTY TYPE,ADDRESS,CITY,STATE OR PROVINCE,ZIP OR POSTAL CODE,PRICE,BEDS,BATHS,LOCATION,SQUARE FEET,LOT SIZE,YEAR BUILT,DAYS ON MARKET,$/SQUARE FEET,HOA/MONTH,STATUS,NEXT OPEN HOUSE START TIME,NEXT OPEN HOUSE END TIME,URL (SEE https://www.redfin.com/buy-a-home/comparative-market-analysis FOR INFO ON PRICING),SOURCE,MLS#,FAVORITE,INTERESTED,LATITUDE,LONGITUDE
MLS Listing,,Single Family Residential,1810 S Tyler St,Tacoma,WA,98405,499950,3,2.5,Central Tacoma,1445,6500,1992,1,346,,Active,November-5-2022 02:00 PM,November-5-2022 04:00 PM,https://www.redfin.com/WA/Tacoma/1810-S-Tyler-St-98405/home/2959118,NWMLS,2012943,N,Y,47.2436225,-122.4933632
MLS Listing,,Single Family Residential,522 29th Ave S,Seattle,WA,98144,799000,2,1.5,Leschi,1460,5040,1983,1,547,,Active,,,https://www.redfin.com/WA/Seattle/522-29th-Ave-S-98144/home/148681,NWMLS,2012370,N,Y,47.5973447,-122.2947091
MLS Listing,,Single Family Residential,811 20th Ave S,Seattle,WA,98144,860000,3,2.0,Judkins,2200,3000,1902,1,391,,Active,November-5-2022 12:00 PM,November-5-2022 03:00 PM,https://www.redfin.com/WA/Seattle/811-20th-Ave-S-98144/home/145210,NWMLS,2012371,N,Y,47.5955215,-122.3064846
MLS Listing,,Townhouse,1721 NW 64th St Unit B,Seattle,WA,98107,996900,3,2.0,Ballard,1751,1226,2022,1,569,,Active,,,https://www.redfin.com/WA/Seattle/1721-NW-64th-St-98107/unit-B/home/182308812,NWMLS,2012845,N,Y,47.675052,-122.37993
MLS Listing,,Single Family Residential,10415 20th Avenue Ct E,Tacoma,WA,98445,674950,4,2.5,Midland,2148,9517,2022,1,314,,Active,,,https://www.redfin.com/WA/Unknown/10415-20TH-AVENUE-CT-E-Unknown/home/179834641,NWMLS,2011521,N,Y,47.162236,-122.463272
MLS Listing,,Townhouse,837 NW 52nd St Unit B,Seattle,WA,98107,899000,3,2.5,Ballard,1550,1391,2016,1,580,,Active,November-5-2022 01:00 PM,November-5-2022 04:00 PM,https://www.redfin.com/WA/Seattle/837-NW-52nd-St-98107/unit-B/home/106722390,NWMLS,2013156,N,Y,47.6662643,-122.3679852
MLS Listing,,Single Family Residential,150 S 84th St,Tacoma,WA,98444,574950,4,2.5,Fern Hill,2388,9000,1947,1,241,,Active,,,https://www.redfin.com/WA/Tacoma/150-S-84th-St-98444/home/2620621,NWMLS,2010435,N,Y,47.1806903,-122.4330749
MLS Listing,,Townhouse,4906 C S Willow St,Seattle,WA,98118,659950,4,3.0,Hillman City,1580,1794,2020,1,418,100,Active,November-5-2022 12:00 PM,November-5-2022 03:00 PM,https://www.redfin.com/WA/Seattle/4906-C-S-Willow-St-98118/home/182573008,NWMLS,2011836,N,Y,47.540836,-122.270908
MLS Listing,,Single Family Residential,902 N 105th St,Seattle,WA,98133,719000,2,2.0,Northgate,1470,6293,1949,1,489,,Active,November-4-2022 04:00 PM,November-4-2022 06:00 PM,https://www.redfin.com/WA/Seattle/902-N-105th-St-98133/home/99680,NWMLS,2010327,N,Y,47.7052205,-122.3470798
MLS Listing,,Condo/Co-op,1005 S Pearl St Unit C1,Tacoma,WA,98465,268950,2,1.0,Tacoma,905,1894,1978,1,297,352,Active,,,https://www.redfin.com/WA/Tacoma/1005-S-Pearl-St-98465/unit-C1/home/2749820,NWMLS,2011219,N,Y,47.2515476,-122.5151066
MLS Listing,,Condo/Co-op,1107 1st Ave #808,Seattle,WA,98101,529000,1,1.0,Downtown,792,,1983,1,668,741,Active,November-5-2022 12:00 PM,November-5-2022 02:00 PM,https://www.redfin.com/WA/Seattle/1107-1st-Ave-98101/unit-808/home/33556,NWMLS,2012780,N,Y,47.6054843,-122.3374113
MLS Listing,,Condo/Co-op,13735 15th Ave SW Unit A6,Seattle,WA,98125,425000,2,2.0,Northgate,1150,,1975,1,370,581,Active,,,https://www.redfin.com/WA/Seattle/13735-15th-Ave-NE-98125/unit-A6/home/33696,NWMLS,2012940,N,Y,47.7297373,-122.3129819
MLS Listing,,Condo/Co-op,612 Prospect St #302,Seattle,WA,98109,359000,1,1.0,Queen Anne,679,,1968,1,529,463,Active,,,https://www.redfin.com/WA/Seattle/612-Prospect-St-98109/unit-302/home/38650,NWMLS,2012764,N,Y,47.6291899,-122.3439723
MLS Listing,,Condo/Co-op,121 Stewart St #701,Seattle,WA,98101,569000,1,1.0,Downtown,791,,2020,1,719,720,Active,,,https://www.redfin.com/WA/Seattle/121-Stewart-St-98101/unit-701/home/175699599,NWMLS,2012978,N,Y,47.6106852,-122.3406126
MLS Listing,,Townhouse,6258 Vassar Ave NE,Seattle,WA,98115,884950,2,2.5,Hawthorne Hills,1086,2068,2022,1,815,5,Active,,,https://www.redfin.com/WA/Seattle/6258-Vassar-Ave-NE-98115/home/182539850,NWMLS,2012933,N,Y,47.675472,-122.2781579
MLS Listing,,Condo/Co-op,6910 California Ave SW #16,Seattle,WA,98136,479950,2,2.0,West Seattle,1128,,1985,1,425,471,Active,,,https://www.redfin.com/WA/Seattle/6910-California-Ave-SW-98136/unit-16/home/72594,NWMLS,2011336,N,Y,47.54189,-122.3867951
MLS Listing,,Townhouse,300 26th Ave E Unit D,Seattle,WA,98112,975000,3,2.0,Madison Valley,1810,1294,2001,1,539,,Active,November-3-2022 11:30 AM,November-3-2022 01:30 PM,https://www.redfin.com/WA/Seattle/300-26th-Ave-E-98112/unit-D/home/145828,NWMLS,2012651,N,Y,47.6222591,-122.298342
MLS Listing,,Single Family Residential,4320 S Bell St,Tacoma,WA,98418,350000,3,1.0,Tacoma,922,4600,1925,1,380,,Active,,,https://www.redfin.com/WA/Tacoma/4320-S-Bell-St-98418/home/2962232,NWMLS,2012802,N,Y,47.2176505,-122.4329697
MLS Listing,,Single Family Residential,3773 E R St,Tacoma,WA,98404,599950,4,3.5,Tacoma,2824,4598,2006,1,212,100,Active,,,https://www.redfin.com/WA/Tacoma/3773-E-R-St-98404/home/23094035,NWMLS,2012333,N,Y,47.2229701,-122.4042167
MLS Listing,,Single Family Residential,9200 SW 36th Ave,Seattle,WA,98126,750000,3,2.0,Fauntleroy,2060,5280,1917,2,364,,Active,November-5-2022 11:00 AM,November-5-2022 01:00 PM,https://www.redfin.com/WA/Seattle/9200-36th-Ave-SW-98126/home/155807,NWMLS,2012749,N,Y,47.520937,-122.3777501
MLS Listing,,Townhouse,14850 36th Avenue Ct E #18,Tacoma,WA,98446,426000,3,2.5,Brookdale,1625,1,2006,2,262,99,Active,,,https://www.redfin.com/WA/Tacoma/14850-36th-Ave-Ct-E-98446/unit-18/home/3040001,NWMLS,2010566,N,Y,47.1222158,-122.3819322
MLS Listing,,Condo/Co-op,2017 Eastlake Ave E #202,Seattle,WA,98102,648000,2,2.0,Eastlake,1017,,1992,2,637,434,Active,,,https://www.redfin.com/WA/Seattle/2017-Eastlake-Ave-E-98102/unit-202/home/5068,NWMLS,2012277,N,Y,47.6372755,-122.3262042
PAST SALE,,Townhouse,4701 Evanston Ave N,Seattle,WA,98103,735000,2,2.0,Fremont,968,865,2022,1,759,,Pending,,,https://www.redfin.com/WA/Seattle/4701-Evanston-Ave-N-98103/home/182493148,NWMLS,2011466,N,Y,47.6629502,-122.3514932
PAST SALE,,Townhouse,8751 A 14th Ave NW,Seattle,WA,98117,758900,3,2.5,Crown Hill,1485,1494,2022,1,511,,Pending,,,https://www.redfin.com/WA/Seattle/8751-14th-Ave-NW-98117/home/182481908,NWMLS,2010666,N,Y,47.6937636,-122.3745966
PAST SALE,,Townhouse,8039 B Mary Ave NW,Seattle,WA,98117,830000,3,2.0,Whittier,1415,846,2022,1,587,24,Pending,,,https://www.redfin.com/WA/Seattle/8039-Mary-Ave-NW-98117/home/182049419,NWMLS,2010785,N,Y,47.6880618,-122.375811
PAST SALE,,Condo/Co-op,3932 S Edmunds St Unit B,Seattle,WA,98118,615000,2,2.5,Columbia City,840,897,2022,1,732,260,Pending,,,https://www.redfin.com/WA/Seattle/3932-S-Edmunds-St-98118/unit-B/home/182456330,NWMLS,2010428,N,Y,47.5588436,-122.2820336
PAST SALE,July-26-2018,Condo/Co-op,4540 8th Ave NE #2101,Seattle,WA,98105,695000,3,2.0,University District,1450,,1974,1,479,1333,Pending,,,https://www.redfin.com/WA/Seattle/4540-8th-Ave-NE-98105/unit-2101/home/63684,NWMLS,2010157,N,Y,47.662897,-122.318835
PAST SALE,April-1-1999,Single Family Residential,1506 S 85th St,Tacoma,WA,98444,395000,2,2.0,South Tacoma,1222,8400,1986,1,323,,Pending,,,https://www.redfin.com/WA/Tacoma/1506-S-85th-St-98444/home/2793407,NWMLS,2008545,N,Y,47.1798643,-122.4544467
PAST SALE,September-13-2018,Condo/Co-op,520 2nd Ave W #402,Seattle,WA,98119,399000,1,1.0,Queen Anne,620,,1992,1,644,520,Pending,,,https://www.redfin.com/WA/Seattle/520-2nd-Ave-W-98119/unit-402/home/63961,NWMLS,2008752,N,Y,47.6240407,-122.3589313
PAST SALE,April-8-2021,Townhouse,7027 15th Ave NW,Seattle,WA,98117,774500,3,3.5,Ballard,1925,1297,2022,1,402,,Pending,,,https://www.redfin.com/WA/Seattle/7027-15th-Ave-NW-98117/home/163015,NWMLS,2008663,N,Y,47.6803914,-122.3770831
PAST SALE,,Townhouse,4707 Evanston Ave N,Seattle,WA,98103,719950,2,2.0,Fremont,968,656,2022,1,744,,Pending,,,https://www.redfin.com/WA/Seattle/4707-Evanston-Ave-N-98103/home/182325714,NWMLS,2007732,N,Y,47.662997,-122.3517702
PAST SALE,,Single Family Residential,3241 S Hanford,Seattle,WA,98144,699888,4,2.0,Mt Baker,2220,5775,1922,1,315,,Pending,,,https://www.redfin.com/WA/Seattle/3241-S-Hanford-St-98144/home/171818,NWMLS,2007272,N,Y,47.5753332,-122.2913615
PAST SALE,September-9-2005,Single Family Residential,6517 S D St,Tacoma,WA,98408,325000,2,1.0,Tacoma,896,6250,1947,1,363,,Pending,,,https://www.redfin.com/WA/Tacoma/6517-S-D-St-98408/home/2942871,NWMLS,2007342,N,Y,47.1971747,-122.4362931
PAST SALE,August-15-2017,Single Family Residential,8451 S 19th St,Tacoma,WA,98466,475000,2,2.0,University Place,1552,10800,1949,1,306,,Pending,,,https://www.redfin.com/WA/Tacoma/8451-S-19th-St-98466/home/2456295,NWMLS,2007395,N,Y,47.242937,-122.5529627
PAST SALE,September-18-2009,Single Family Residential,3018 S 15 St,Tacoma,WA,98405,429900,3,1.0,Central Tacoma,1404,8460,1921,1,306,,Pending,,,https://www.redfin.com/WA/Tacoma/3018-S-15th-St-98405/home/2585846,NWMLS,2006859,N,Y,47.2463374,-122.4758265
PAST SALE,March-17-2011,Single Family Residential,4739 48th Ave SW,Seattle,WA,98116,950000,3,2.0,Genesee,1580,5040,1947,1,601,,Pending,,,https://www.redfin.com/WA/Seattle/4739-48th-Ave-SW-98116/home/153902,NWMLS,1998776,N,Y,47.5599902,-122.3938453
PAST SALE,,Townhouse,2433 S Plum St,Seattle,WA,98144,845990,2,3.5,Seattle,1708,,2022,1,495,200,Pending,,,https://www.redfin.com/WA/Seattle/2433-S-Plum-St-98144/home/177920508,NWMLS,2005598,N,Y,47.5853268,-122.3011747
PAST SALE,July-30-2020,Condo/Co-op,507 W Mercer St #201,Seattle,WA,98119,324000,1,1.0,Queen Anne,534,,1963,1,607,444,Pending,,,https://www.redfin.com/WA/Seattle/507-W-Mercer-St-98119/unit-201/home/18217,NWMLS,2003656,N,Y,47.6243835,-122.3638205
PAST SALE,,Townhouse,8319 C 14th Ave NW,Seattle,WA,98117,710000,2,2.0,Ballard,1240,583,2022,1,573,,Pending,,,https://www.redfin.com/WA/Seattle/8319-14th-Ave-NW-98117/unit-C/home/178442579,NWMLS,1999086,N,Y,47.6893256,-122.3743349
PAST SALE,,Townhouse,607 Wheeler St,Seattle,WA,98109,925000,2,2.0,Queen Anne,1228,900,2022,1,753,,Pending,,,https://www.redfin.com/WA/Seattle/607-Wheeler-St-98109/home/181841805,NWMLS,1997735,N,Y,47.6409064,-122.3445988
PAST SALE,,Townhouse,4728 38th Ave S,Seattle,WA,98118,839950,3,2.5,Columbia City,1563,1950,2022,1,537,0,Pending,,,https://www.redfin.com/WA/Seattle/4728-38th-Ave-S-98118/home/181074194,NWMLS,1983794,N,Y,47.5599804,-122.2845636
PAST SALE,,Townhouse,8344 C (NC-3) 13th Ave NW,Seattle,WA,98117,999950,3,2.5,Crown Hill,1807,1114,2022,1,553,,Pending,,,https://www.redfin.com/WA/Seattle/8344-C-NC-3-13th-Ave-NW-98117/home/179847140,NWMLS,1950034,N,Y,47.690053,-122.372381
PAST SALE,,Townhouse,3930 B6 S Pearl St,Seattle,WA,98118,824900,2,2.0,Columbia City,1394,880,2023,1,592,,Pending,,,https://www.redfin.com/WA/Seattle/3930-B6-S-Pearl-St-98118/home/179609560,NWMLS,1938491,N,Y,47.556347,-122.281837
PAST SALE,,Condo/Co-op,800 Columbia St #608,Seattle,WA,98104,674990,1,1.0,First Hill,576,,2023,1,1172,582,Pending,,,https://www.redfin.com/WA/Seattle/800-Columbia-St-98104/unit-608/home/174435463,NWMLS,1928429,N,Y,47.6067442,-122.3271536
PAST SALE,,Condo/Co-op,800 Columbia St #915,Seattle,WA,98104,598000,0,1.0,First Hill,539,,2023,1,1109,522,Pending,,,https://www.redfin.com/WA/Seattle/800-Columbia-St-98104/unit-915/home/179158881,NWMLS,1921461,N,Y,47.6067442,-122.3271536
PAST SALE,,Condo/Co-op,800 Columbia St #906,Seattle,WA,98104,649000,1,1.0,First Hill,601,,2023,1,1080,607,Pending,,,https://www.redfin.com/WA/Seattle/800-Columbia-St-98104/unit-906/home/179158876,NWMLS,1921467,N,Y,47.6067442,-122.3271536
PAST SALE,,Condo/Co-op,800 Columbia St #712,Seattle,WA,98104,622000,0,1.0,First Hill,541,,2023,1,1150,546,Pending,,,https://www.redfin.com/WA/Seattle/800-Columbia-St-98104/unit-712/home/179158875,NWMLS,1921471,N,Y,47.6067442,-122.3271536
PAST SALE,,Condo/Co-op,800 Columbia St #908,Seattle,WA,98104,681000,1,1.0,First Hill,607,,2023,1,1122,613,Pending,,,https://www.redfin.com/WA/Seattle/800-Columbia-St-98104/unit-908/home/179158874,NWMLS,1921462,N,Y,47.6067442,-122.3271536
PAST SALE,,Condo/Co-op,800 Columbia St #1507,Seattle,WA,98104,623000,1,1.0,First Hill,544,,2023,1,1145,550,Pending,,,https://www.redfin.com/WA/Seattle/800-Columbia-St-98104/unit-1507/home/179158865,NWMLS,1921443,N,Y,47.6067442,-122.3271536
PAST SALE,,Condo/Co-op,800 Columbia St #1701,Seattle,WA,98104,726000,1,1.0,First Hill,589,,2023,1,1233,595,Pending,,,https://www.redfin.com/WA/Seattle/800-Columbia-St-98104/unit-1701/home/179158864,NWMLS,1921438,N,Y,47.6067442,-122.3271536
PAST SALE,,Condo/Co-op,800 Columbia St #1506,Seattle,WA,98104,669000,1,1.0,First Hill,601,,2023,1,1113,607,Pending,,,https://www.redfin.com/WA/Seattle/800-Columbia-St-98104/unit-1506/home/179158863,NWMLS,1921447,N,Y,47.6067442,-122.3271536
PAST SALE,,Condo/Co-op,800 Columbia St #1501,Seattle,WA,98104,716000,1,1.0,First Hill,589,,2023,1,1216,595,Pending,,,https://www.redfin.com/WA/Seattle/800-Columbia-St-98104/unit-1501/home/179158862,NWMLS,1921458,N,Y,47.6067442,-122.3271536
PAST SALE,,Condo/Co-op,800 Columbia St #1707,Seattle,WA,98104,633000,1,1.0,First Hill,544,,2023,1,1164,550,Pending,,,https://www.redfin.com/WA/Seattle/800-Columbia-St-98104/unit-1707/home/179158856,NWMLS,1921432,N,Y,47.6067442,-122.3271536
PAST SALE,,Condo/Co-op,800 Columbia St #1715,Seattle,WA,98104,628000,0,1.0,First Hill,517,,2023,1,1215,522,Pending,,,https://www.redfin.com/WA/Seattle/800-Columbia-St-98104/unit-1715/home/179158850,NWMLS,1921426,N,Y,47.6067442,-122.3271536
PAST SALE,,Condo/Co-op,17610 26th Ave E #3,Tacoma,WA,98445,369950,3,2.5,Spanaway,1425,3376,2005,1,260,150,Pending,,,https://www.redfin.com/WA/Tacoma/17610-26th-Ave-E-98445/unit-3/home/12245933,NWMLS,1902902,N,Y,47.0961661,-122.3952727
PAST SALE,,Townhouse,1420 NW 92nd St,Seattle,WA,98117,712900,2,2.0,Crown Hill,1164,1,2022,1,612,,Pending,,,https://www.redfin.com/WA/Seattle/1420-NW-92nd-St-98117/home/178357225,NWMLS,1891553,N,Y,47.6960674,-122.3744563
PAST SALE,,Townhouse,8338 (NA-4) 13th Ave NW,Seattle,WA,98117,919900,3,2.0,Crown Hill,1652,500,2022,1,557,,Pending,,,https://www.redfin.com/WA/Seattle/8338-NA-4-13th-Ave-NW-98117/home/178300330,NWMLS,1875846,N,Y,47.689916,-122.372557
PAST SALE,,Townhouse,1424 NW 92nd St,Seattle,WA,98117,704900,2,2.0,Crown Hill,1164,1,2022,1,606,,Pending,,,https://www.redfin.com/WA/Seattle/1424-NW-92nd-St-98117/home/177708448,NWMLS,1874231,N,Y,47.6960682,-122.3745252
PAST SALE,,Townhouse,2711 E Yesler Way Unit A,Seattle,WA,98122,649900,2,2.0,Leschi,1109,1,2021,1,586,,Pending,,,https://www.redfin.com/WA/Seattle/2711-E-Yesler-Way-98122/unit-A/home/177302469,NWMLS,1865931,N,Y,47.6014007,-122.2972963
PAST SALE,,Townhouse,9206 Mary Ave NW,Seattle,WA,98117,729900,2,2.0,Crown Hill,1227,8280,2021,1,595,,Pending,,,https://www.redfin.com/WA/Seattle/9206-Mary-Ave-NW-98117/home/177153494,NWMLS,1863094,N,Y,47.6963227,-122.3750814
PAST SALE,,Townhouse,13250 65th Ave S Unit D20,Seattle,WA,98178,599800,3,2.5,Bryn Mawr,1750,1658,2021,1,343,180,Pending,,,https://www.redfin.com/WA/Seattle/13250-65th-Ave-S-98178/unit-D20/home/175264621,NWMLS,1785710,N,Y,47.4855317,-122.2531252
PAST SALE,,Condo/Co-op,2510 6th Ave #2205,Seattle,WA,98121,575000,1,1.0,Belltown,584,,2021,1,985,541,Pending,,,https://www.redfin.com/WA/Seattle/2510-6th-Ave-98121/unit-2205/home/175152807,NWMLS,1775693,N,Y,47.6180481,-122.3445132
PAST SALE,,Townhouse,6500 S 133rd St Unit A4,Seattle,WA,98178,589900,3,2.5,Bryn Mawr,1750,846,2021,1,337,180,Pending,,,https://www.redfin.com/WA/Seattle/6500-S-133rd-St-98178/unit-A4/home/174490854,NWMLS,1733781,N,Y,47.4840644,-122.252426
PAST SALE,,Condo/Co-op,600 Wall St #1005,Seattle,WA,98121,658950,1,1.0,Belltown,596,,2020,1,1106,576,Pending,,,https://www.redfin.com/WA/Seattle/600-Wall-St-98109/unit-1005/home/148369724,NWMLS,1387408,N,Y,47.6183385,-122.344502
