SALE TYPE,SOLD DATE,PROPERTY TYPE,ADDRESS,CITY,STATE OR PROVINCE,ZIP OR POSTAL CODE,PRICE,BEDS,BATHS,LOCATION,SQUARE FEET,LOT SIZE,YEAR BUILT,DAYS ON MARKET,$/SQUARE FEET,HOA/MONTH,STATUS,NEXT OPEN HOUSE START TIME,NEXT OPEN HOUSE END TIME,URL (SEE https://www.redfin.com/buy-a-home/comparative-market-analysis FOR INFO ON PRICING),SOURCE,MLS#,FAVORITE,INTERESTED,LATITUDE,LONGITUDE
PAST SALE,July-3-2012,Single Family Residential,5069 25th Ave SW,Seattle,WA,98106,910000,3,1.5,Delridge,1620,7920,2008,1,562,,Pending,,,https://www.redfin.com/WA/Seattle/5069-25th-Ave-SW-98106/home/159116,NWMLS,2013335,N,Y,47.5554889,-122.3646412
MLS Listing,,Single Family Residential,12752 6th Ave NW,Seattle,WA,98177,1000000,3,2.0,Broadview,2650,7628,1940,1,377,,Active,,,https://www.redfin.com/WA/Seattle/12752-6th-Ave-NW-98177/home/291448,NWMLS,2016497,N,Y,47.7229872,-122.3633604
MLS Listing,,Single Family Residential,5116 N 43rd St,Tacoma,WA,98407,649950,3,2.5,North Tacoma,1551,3125,2000,1,419,,Active,,,https://www.redfin.com/WA/Tacoma/5116-N-43rd-St-98407/home/2942671,NWMLS,2016504,N,Y,47.2877546,-122.5059751
MLS Listing,,Single Family Residential,9237 36th Ave S,Seattle,WA,98118,650000,2,1.0,Seattle,1040,7214,1947,1,625,,Active,,,https://www.redfin.com/WA/Seattle/9237-36th-Ave-S-98118/home/479999,NWMLS,2007654,N,Y,47.5204016,-122.2875727
MLS Listing,,Single Family Residential,6723 1st Ave NW,Seattle,WA,98117,1000000,3,3.0,Phinney Ridge,2040,4000,1924,1,490,,Active,November-13-2022 01:00 PM,November-13-2022 04:00 PM,https://www.redfin.com/WA/Seattle/6723-1st-Ave-NW-98117/home/496379,NWMLS,2016480,N,Y,47.6785161,-122.3577432
MLS Listing,,Single Family Residential,4215 NE 85th St,Seattle,WA,98115,875000,3,1.0,Wedgwood,1460,5856,1949,1,599,,Active,November-13-2022 02:00 PM,November-13-2022 04:00 PM,https://www.redfin.com/WA/Seattle/4215-NE-85th-St-98115/home/318621,NWMLS,2016463,N,Y,47.6900132,-122.2827226
MLS Listing,,Single Family Residential,4818 Slayden Rd NE,Tacoma,WA,98422,625000,3,2.0,Browns Point,1736,6969,1970,1,360,,Active,,,https://www.redfin.com/WA/Tacoma/4818-Slayden-Rd-NE-98422/home/2631053,NWMLS,2016481,N,Y,47.3010163,-122.4330394
MLS Listing,,Single Family Residential,"1625 4302 E 61st Street Tacoma WA, 98404",Tacoma,WA,98404,419950,3,2.0,East Tacoma,1360,7440,1968,1,309,,Active,,,https://www.redfin.com/WA/Tacoma/1625-4302-E-61st-St-98404/home/182793386,NWMLS,2016316,N,Y,47.20196,-122.406579
MLS Listing,,Single Family Residential,8652 45th Ave S,Seattle,WA,98118,829000,3,2.5,Dunlap,2118,2466,2022,1,391,,Active,,,https://www.redfin.com/WA/SEATTLE/8652-45TH-AVE-S-98118/home/179607952,NWMLS,2016444,N,Y,47.524535,-122.275804
MLS Listing,,Single Family Residential,7423 E G St,Tacoma,WA,98404,549000,3,2.0,Fern Hill,1260,5998,1995,1,436,,Active,,,https://www.redfin.com/WA/Tacoma/7423-E-G-St-98404/home/2821438,NWMLS,2016456,N,Y,47.1894555,-122.4218972
MLS Listing,,Single Family Residential,6802 S Alaska St,Tacoma,WA,98408,559980,4,2.5,Wapato,2160,6451,2022,2,259,50,Active,,,https://www.redfin.com/WA/Tacoma/6802-S-Alaska-St-98408/home/178471690,NWMLS,2016441,N,Y,47.1957309,-122.4588018
MLS Listing,,Single Family Residential,6804 S Alaska St,Tacoma,WA,98408,579980,4,2.5,Wapato,2244,7027,2022,2,258,50,Active,,,https://www.redfin.com/WA/Tacoma/6804-S-Alaska-St-98408/home/178471687,NWMLS,2016439,N,Y,47.195702,-122.4590637
MLS Listing,,Condo/Co-op,312 1st Ave S #2,Seattle,WA,98104,575000,2,1.0,Pioneer Square,779,,1900,2,738,533,Active,November-13-2022 12:00 PM,November-13-2022 02:00 PM,https://www.redfin.com/WA/Seattle/312-1st-Ave-S-98104/unit-2/home/12305762,NWMLS,2016212,N,Y,47.5996017,-122.3336778
MLS Listing,,Townhouse,5604 25th Ave SW Unit B,Seattle,WA,98106,698000,3,2.5,Delridge,1651,1110,2018,2,423,,Active,,,https://www.redfin.com/WA/Seattle/5604-25th-Ave-SW-98106/unit-B/home/166808923,NWMLS,2016431,N,Y,47.5517214,-122.3642644
MLS Listing,,Single Family Residential,6726 Cleopatra Pl NW,Seattle,WA,98117,850000,2,1.0,Ballard,2200,4000,1928,2,386,,Active,November-13-2022 11:30 AM,November-13-2022 01:30 PM,https://www.redfin.com/WA/Seattle/6726-Cleopatra-Pl-NW-98117/home/497323,NWMLS,2016377,N,Y,47.6785917,-122.365262
MLS Listing,,Single Family Residential,7908 fremont Ave N,Seattle,WA,98103,750000,2,1.0,Phinney Ridge,2470,2832,1925,2,304,,Active,November-13-2022 01:00 PM,November-13-2022 03:00 PM,https://www.redfin.com/WA/Seattle/7908-Fremont-Ave-N-98103/home/301057,NWMLS,2016365,N,Y,47.686497,-122.3496707
MLS Listing,,Townhouse,3245 21st Ave W,Seattle,WA,98199,935000,3,2.5,Magnolia,1619,1372,2014,2,578,,Active,November-13-2022 12:00 PM,November-13-2022 02:00 PM,https://www.redfin.com/WA/Seattle/3245-21st-Ave-W-98199/home/59703271,NWMLS,2016042,N,Y,47.6499172,-122.3839768
MLS Listing,,Single Family Residential,14056 30th Ave NE,Lake City,WA,98125,425000,2,1.0,Olympic Hills,770,6100,1951,2,552,,Active,,,https://www.redfin.com/WA/Seattle/14056-30th-Ave-NE-98125/home/114121,NWMLS,2015869,N,Y,47.7318085,-122.296268
MLS Listing,,Single Family Residential,4106 S L St,Tacoma,WA,98418,620000,3,2.0,Lincoln,2834,6500,1900,2,219,,Active,,,https://www.redfin.com/WA/Tacoma/4106-S-L-St-98418/home/2978875,NWMLS,2016286,N,Y,47.2197,-122.4497125
MLS Listing,,Townhouse,8046 35th Ave NE,Seattle,WA,98115,799950,3,1.5,Wedgwood,1416,1309,2019,2,565,,Active,November-13-2022 12:00 PM,November-13-2022 02:00 PM,https://www.redfin.com/WA/Seattle/8046-35th-Ave-NE-98115/home/169504198,NWMLS,2015726,N,Y,47.6880364,-122.2902377
MLS Listing,,Condo/Co-op,1920 4th Ave #803,Seattle,WA,98101,780000,1,1.5,Downtown,910,,2010,2,857,798,Active,November-13-2022 11:00 AM,November-13-2022 01:00 PM,https://www.redfin.com/WA/Seattle/1920-4th-Ave-98101/unit-803/home/22050956,NWMLS,2016038,N,Y,47.6130983,-122.3394215
MLS Listing,,Condo/Co-op,8501 12th Ave NW #307,Seattle,WA,98117,499000,2,2.0,Crown Hill,1116,,1980,2,447,583,Active,,,https://www.redfin.com/WA/Seattle/8501-12th-Ave-NW-98117/unit-307/home/58070,NWMLS,2015417,N,Y,47.6909644,-122.371777
MLS Listing,,Single Family Residential,2637 SW Nevada St,Seattle,WA,98126,699950,3,3.5,Delridge,1540,2322,2006,2,455,,Active,November-13-2022 12:00 PM,November-13-2022 02:00 PM,https://www.redfin.com/WA/Seattle/2637-SW-Nevada-St-98126/home/12317836,NWMLS,2015825,N,Y,47.5651885,-122.3670334
MLS Listing,,Single Family Residential,7509 E F St,Tacoma,WA,98404,389950,3,1.0,Tacoma,956,6480,1977,2,408,,Active,,,https://www.redfin.com/WA/Tacoma/7509-E-F-St-98404/home/2973339,NWMLS,2015626,N,Y,47.1886357,-122.4232786
MLS Listing,,Single Family Residential,8501 17th Pl NE,Seattle,WA,98115,900000,4,1.0,Maple Leaf,2520,7475,1926,2,357,,Active,November-13-2022 01:00 PM,November-13-2022 04:00 PM,https://www.redfin.com/WA/Seattle/8501-17th-Pl-NE-98115/home/106703,NWMLS,2015803,N,Y,47.6905228,-122.3103936
MLS Listing,,Condo/Co-op,3200 W Commodore Way #108,Seattle,WA,98199,387000,1,1.0,Magnolia,704,,1965,2,550,458,Active,November-13-2022 01:00 PM,November-13-2022 03:00 PM,https://www.redfin.com/WA/Seattle/3200-W-Commodore-Way-98199/unit-108/home/14231,NWMLS,2016211,N,Y,47.6644126,-122.3980168
MLS Listing,,Condo/Co-op,275 W Roy St #304,Seattle,WA,98119,399000,1,1.0,Queen Anne,598,,1982,2,667,398,Active,,,https://www.redfin.com/WA/Seattle/275-W-Roy-St-98119/unit-304/home/63679,NWMLS,2016362,N,Y,47.6255231,-122.3599262
MLS Listing,,Townhouse,6254 Vassar Ave NE #3,Seattle,WA,98115,864950,2,2.0,Hawthorne Hills,1086,1765,2022,2,796,5,Active,,,https://www.redfin.com/WA/Seattle/6254-Vassar-Ave-NE-98115/unit-3/home/182643304,NWMLS,2016380,N,Y,47.6753495,-122.2781451
MLS Listing,,Townhouse,5057 37TH Ave S Unit A,Seattle,WA,98118,689900,2,3.0,Columbia City,1513,661,2019,2,456,5,Active,,,https://www.redfin.com/WA/Seattle/5057-37th-Ave-S-98118/unit-A/home/182782298,NWMLS,2016298,N,Y,47.5556009,-122.2865142
MLS Listing,,Single Family Residential,1510 S 15th St,Tacoma,WA,98405,515000,3,2.0,Hilltop,2433,7000,1905,2,212,,Active,,,https://www.redfin.com/WA/Tacoma/1510-S-15th-St-98405/home/2709422,NWMLS,2016330,N,Y,47.2470534,-122.4570687
MLS Listing,,Single Family Residential,2558 NE 91st St Unit C,Seattle,WA,98115,699999,2,2.5,Wedgwood,995,1,2022,2,704,,Active,,,https://www.redfin.com/WA/Seattle/2558-NE-91st-St-98115/unit-C/home/182777584,NWMLS,2016343,N,Y,47.6950063,-122.2990093
MLS Listing,,Condo/Co-op,4201 35th Ave W #101,Seattle,WA,98199,399000,2,1.0,Magnolia,780,,1967,2,512,360,Active,,,https://www.redfin.com/WA/Seattle/4201-35th-Ave-W-98199/unit-101/home/69772,NWMLS,2016109,N,Y,47.6578812,-122.4024619
MLS Listing,,Single Family Residential,8047 S Alaska St,Tacoma,WA,98408,495000,3,3.0,Tacoma,1936,9148,1979,2,256,,Active,,,https://www.redfin.com/WA/TACOMA/8047-S-ALASKA-ST-98408/home/2617239,NWMLS,2016223,N,Y,47.182998,-122.457475
MLS Listing,,Townhouse,4802 Nassau Ave NE #33,Tacoma,WA,98422,425000,3,2.5,Ne Tacoma,1556,4698,1997,2,273,399,Active,November-13-2022 10:30 AM,November-13-2022 01:30 PM,https://www.redfin.com/WA/Tacoma/4802-Nassau-Ave-NE-98422/unit-33/home/2982568,NWMLS,2016295,N,Y,47.2976224,-122.4031397
MLS Listing,,Single Family Residential,337 100th St S,Tacoma,WA,98444,375000,2,1.0,Fern Hill,906,8700,1941,2,414,,Active,November-13-2022 12:00 PM,November-13-2022 03:00 PM,https://www.redfin.com/WA/Tacoma/337-100th-St-S-98444/home/2793594,NWMLS,2015461,N,Y,47.1668092,-122.436403
MLS Listing,,Single Family Residential,6316 1st Street Ct E,Tacoma,WA,98424,485000,3,1.5,Fife Heights,1416,10800,1974,2,343,,Active,,,https://www.redfin.com/WA/Tacoma/6316-1st-St-Ct-E-98424/home/2959955,NWMLS,2015389,N,Y,47.255639,-122.344593
MLS Listing,,Single Family Residential,3730 E Howe St,Tacoma,WA,98404,459000,5,2.0,East Tacoma,2000,5500,1977,2,230,,Active,November-13-2022 03:00 PM,November-13-2022 05:00 PM,https://www.redfin.com/WA/Tacoma/3730-E-Howe-St-98404/home/2986770,NWMLS,2016080,N,Y,47.2235969,-122.4155332
MLS Listing,,Single Family Residential,1226 141st St E,Tacoma,WA,98445,425000,3,1.5,Parkland,1252,9840,1964,2,339,,Active,November-13-2022 02:00 PM,November-13-2022 04:00 PM,https://www.redfin.com/WA/Tacoma/1226-141st-St-E-98445/home/2915268,NWMLS,2015828,N,Y,47.1282825,-122.4131693
PAST SALE,October-13-2016,Townhouse,2834 SW Adams St Unit A,Seattle,WA,98126,715000,3,3.5,West Seattle,1710,1326,2009,1,418,,Pending,,,https://www.redfin.com/WA/Seattle/2834-SW-Adams-St-98126/unit-A/home/21883694,NWMLS,2014716,N,Y,47.5663253,-122.3696142
PAST SALE,November-23-2005,Condo/Co-op,3202 SW Avalon Way #203,Seattle,WA,98126,425000,2,2.0,West Seattle,883,7607,1998,1,481,523,Pending,,,https://www.redfin.com/WA/Seattle/3202-SW-Avalon-Way-98126/unit-203/home/2071173,NWMLS,2014824,N,Y,47.5646258,-122.3730523
PAST SALE,November-1-2022,Townhouse,918 N 100th St,Seattle,WA,98133,549755,2,1.5,Seattle,900,,2022,1,611,58,Pending,,,https://www.redfin.com/WA/Seattle/918-N-100th-St-98133/home/99867,NWMLS,2014878,N,Y,47.7016197,-122.3464942
PAST SALE,,Townhouse,914 N 100th St,Seattle,WA,98133,549755,2,1.5,Seattle,900,,2022,1,611,58,Pending,,,https://www.redfin.com/WA/Seattle/914-N-100th-St-98133/home/182702396,NWMLS,2014874,N,Y,47.7016482,-122.3472131
PAST SALE,October-3-2005,Single Family Residential,6328 PACIFIC Ave,Tacoma,WA,98408,530000,4,2.0,South Tacoma,1909,9318,1945,1,278,,Pending,,,https://www.redfin.com/WA/Tacoma/6328-Pacific-Ave-98408/home/2915981,NWMLS,2014657,N,Y,47.1997152,-122.4343099
PAST SALE,,Condo/Co-op,2510 6th Ave #810,Seattle,WA,98121,767000,1,1.0,Denny Triangle,985,,2021,1,779,912,Pending,,,https://www.redfin.com/WA/Seattle/2510-6th-Ave-98121/unit-810/home/182667668,NWMLS,2014722,N,Y,47.6182832,-122.344644
PAST SALE,,Townhouse,974 N Allen Pl,Seattle,WA,98103,740000,2,2.0,Wallingford,1036,856,2022,1,714,,Pending,,,https://www.redfin.com/WA/Seattle/974-N-Allen-Pl-98103/home/182644547,NWMLS,2007226,N,Y,47.6606961,-122.3458763
PAST SALE,October-30-2018,Condo/Co-op,600 N 85th St #209,Seattle,WA,98103,335000,1,1.0,Greenwood,553,,1999,1,606,365,Pending,,,https://www.redfin.com/WA/Seattle/600-N-85th-St-98103/unit-209/home/31813,NWMLS,2011576,N,Y,47.6907801,-122.3508792
PAST SALE,,Single Family Residential,7152 44th Ave S,Seattle,WA,98118,830500,3,3.0,Brighton,1731,1683,2022,1,480,,Pending,,,https://www.redfin.com/WA/Seattle/7152-44th-Ave-S-98118/home/182598452,NWMLS,2013152,N,Y,47.5375729,-122.278027
PAST SALE,September-30-2009,Single Family Residential,10744 Ashworth Ave N,Seattle,WA,98133,1000000,5,3.0,Licton Springs,2510,11960,1940,1,398,,Pending,,,https://www.redfin.com/WA/Seattle/10744-Ashworth-Ave-N-98133/home/104274,NWMLS,2009167,N,Y,47.7082318,-122.3388778
PAST SALE,,Single Family Residential,10828 12th Ave SW,Seattle,WA,98146,625000,4,3.0,White Center,2240,6754,1935,1,279,,Pending,,,https://www.redfin.com/WA/Seattle/10828-12th-Ave-SW-98146/home/183202,NWMLS,2010673,N,Y,47.5056575,-122.3496521
PAST SALE,February-19-2016,Single Family Residential,9341 54th Ave S,Seattle,WA,98118,545000,4,2.0,Rainier Beach,1595,5500,1904,1,342,,Pending,,,https://www.redfin.com/WA/Seattle/9341-54th-Ave-S-98118/home/176173,NWMLS,2012950,N,Y,47.5178469,-122.2654122
PAST SALE,,Townhouse,4701 Evanston Ave N,Seattle,WA,98103,735000,2,2.0,Fremont,968,865,2022,1,759,,Pending,,,https://www.redfin.com/WA/Seattle/4701-Evanston-Ave-N-98103/home/182493148,NWMLS,2011466,N,Y,47.6629502,-122.3514932
PAST SALE,July-22-2022,Townhouse,8751 A 14th Ave NW,Seattle,WA,98117,758900,3,2.5,Crown Hill,1485,1494,2022,1,511,,Pending,,,https://www.redfin.com/WA/Seattle/8751-14th-Ave-NW-98117/home/182481908,NWMLS,2010666,N,Y,47.6937636,-122.3745966
PAST SALE,,Townhouse,8039 B Mary Ave NW,Seattle,WA,98117,830000,3,2.0,Whittier,1415,846,2022,1,587,24,Pending,,,https://www.redfin.com/WA/Seattle/8039-Mary-Ave-NW-98117/home/182049419,NWMLS,2010785,N,Y,47.6880618,-122.375811
PAST SALE,September-13-2018,Condo/Co-op,520 2nd Ave W #402,Seattle,WA,98119,399000,1,1.0,Queen Anne,620,,1992,1,644,520,Pending,,,https://www.redfin.com/WA/Seattle/520-2nd-Ave-W-98119/unit-402/home/63961,NWMLS,2008752,N,Y,47.6240407,-122.3589313
PAST SALE,April-8-2021,Townhouse,7027 15th Ave NW,Seattle,WA,98117,774500,3,3.5,Ballard,1925,1297,2022,1,402,,Pending,,,https://www.redfin.com/WA/Seattle/7027-15th-Ave-NW-98117/home/163015,NWMLS,2008663,N,Y,47.6803914,-122.3770831
PAST SALE,,Townhouse,4707 Evanston Ave N,Seattle,WA,98103,719950,2,2.0,Fremont,968,656,2022,1,744,,Pending,,,https://www.redfin.com/WA/Seattle/4707-Evanston-Ave-N-98103/home/182325714,NWMLS,2007732,N,Y,47.662997,-122.3517702
PAST SALE,September-18-2009,Single Family Residential,3018 S 15 St,Tacoma,WA,98405,429900,3,1.0,Central Tacoma,1404,8460,1921,1,306,,Pending,,,https://www.redfin.com/WA/Tacoma/3018-S-15th-St-98405/home/2585846,NWMLS,2006859,N,Y,47.2463374,-122.4758265
PAST SALE,March-17-2011,Single Family Residential,4739 48th Ave SW,Seattle,WA,98116,950000,3,2.0,Genesee,1580,5040,1947,1,601,,Pending,,,https://www.redfin.com/WA/Seattle/4739-48th-Ave-SW-98116/home/153902,NWMLS,1998776,N,Y,47.5599902,-122.3938453
PAST SALE,,Townhouse,2433 S Plum St,Seattle,WA,98144,845990,2,3.5,Seattle,1708,,2022,1,495,200,Pending,,,https://www.redfin.com/WA/Seattle/2433-S-Plum-St-98144/home/177920508,NWMLS,2005598,N,Y,47.5853268,-122.3011747
PAST SALE,,Townhouse,8319 C 14th Ave NW,Seattle,WA,98117,710000,2,2.0,Ballard,1240,583,2022,1,573,,Pending,,,https://www.redfin.com/WA/Seattle/8319-14th-Ave-NW-98117/unit-C/home/178442579,NWMLS,1999086,N,Y,47.6893256,-122.3743349
PAST SALE,August-27-2019,Single Family Residential,1729 116th St S,Tacoma,WA,98444,200000,3,2.0,Parkland,1386,10000,1962,1,144,,Pending,,,https://www.redfin.com/WA/Tacoma/1729-116th-St-S-98444/home/2987028,NWMLS,1996934,N,Y,47.1515757,-122.4596764
PAST SALE,,Townhouse,4728 38th Ave S,Seattle,WA,98118,839950,3,2.5,Columbia City,1563,1950,2022,1,537,0,Pending,,,https://www.redfin.com/WA/Seattle/4728-38th-Ave-S-98118/home/181074194,NWMLS,1983794,N,Y,47.5599804,-122.2845636
PAST SALE,,Condo/Co-op,800 Columbia St #608,Seattle,WA,98104,674990,1,1.0,First Hill,576,,2023,1,1172,582,Pending,,,https://www.redfin.com/WA/Seattle/800-Columbia-St-98104/unit-608/home/174435463,NWMLS,1928429,N,Y,47.6067442,-122.3271536
PAST SALE,,Condo/Co-op,800 Columbia St #915,Seattle,WA,98104,598000,0,1.0,First Hill,539,,2023,1,1109,522,Pending,,,https://www.redfin.com/WA/Seattle/800-Columbia-St-98104/unit-915/home/179158881,NWMLS,1921461,N,Y,47.6067442,-122.3271536
PAST SALE,,Condo/Co-op,800 Columbia St #906,Seattle,WA,98104,649000,1,1.0,First Hill,601,,2023,1,1080,607,Pending,,,https://www.redfin.com/WA/Seattle/800-Columbia-St-98104/unit-906/home/179158876,NWMLS,1921467,N,Y,47.6067442,-122.3271536
PAST SALE,,Condo/Co-op,800 Columbia St #908,Seattle,WA,98104,681000,1,1.0,First Hill,607,,2023,1,1122,613,Pending,,,https://www.redfin.com/WA/Seattle/800-Columbia-St-98104/unit-908/home/179158874,NWMLS,1921462,N,Y,47.6067442,-122.3271536
PAST SALE,,Condo/Co-op,800 Columbia St #1507,Seattle,WA,98104,623000,1,1.0,First Hill,544,,2023,1,1145,550,Pending,,,https://www.redfin.com/WA/Seattle/800-Columbia-St-98104/unit-1507/home/179158865,NWMLS,1921443,N,Y,47.6067442,-122.3271536
PAST SALE,,Condo/Co-op,800 Columbia St #1701,Seattle,WA,98104,726000,1,1.0,First Hill,589,,2023,1,1233,595,Pending,,,https://www.redfin.com/WA/Seattle/800-Columbia-St-98104/unit-1701/home/179158864,NWMLS,1921438,N,Y,47.6067442,-122.3271536
PAST SALE,,Condo/Co-op,800 Columbia St #1506,Seattle,WA,98104,669000,1,1.0,First Hill,601,,2023,1,1113,607,Pending,,,https://www.redfin.com/WA/Seattle/800-Columbia-St-98104/unit-1506/home/179158863,NWMLS,1921447,N,Y,47.6067442,-122.3271536
PAST SALE,,Condo/Co-op,800 Columbia St #1501,Seattle,WA,98104,716000,1,1.0,First Hill,589,,2023,1,1216,595,Pending,,,https://www.redfin.com/WA/Seattle/800-Columbia-St-98104/unit-1501/home/179158862,NWMLS,1921458,N,Y,47.6067442,-122.3271536
PAST SALE,,Condo/Co-op,800 Columbia St #1707,Seattle,WA,98104,633000,1,1.0,First Hill,544,,2023,1,1164,550,Pending,,,https://www.redfin.com/WA/Seattle/800-Columbia-St-98104/unit-1707/home/179158856,NWMLS,1921432,N,Y,47.6067442,-122.3271536
PAST SALE,,Condo/Co-op,800 Columbia St #1715,Seattle,WA,98104,628000,0,1.0,First Hill,517,,2023,1,1215,522,Pending,,,https://www.redfin.com/WA/Seattle/800-Columbia-St-98104/unit-1715/home/179158850,NWMLS,1921426,N,Y,47.6067442,-122.3271536
PAST SALE,,Condo/Co-op,17610 26th Ave E #3,Tacoma,WA,98445,369950,3,2.5,Spanaway,1425,3376,2005,1,260,150,Pending,,,https://www.redfin.com/WA/Tacoma/17610-26th-Ave-E-98445/unit-3/home/12245933,NWMLS,1902902,N,Y,47.0961661,-122.3952727
PAST SALE,,Townhouse,8338 (NA-4) 13th Ave NW,Seattle,WA,98117,919900,3,2.0,Crown Hill,1652,500,2022,1,557,,Pending,,,https://www.redfin.com/WA/Seattle/8338-NA-4-13th-Ave-NW-98117/home/178300330,NWMLS,1875846,N,Y,47.689916,-122.372557
PAST SALE,,Townhouse,1424 NW 92nd St,Seattle,WA,98117,704900,2,2.0,Crown Hill,1164,1,2022,1,606,,Pending,,,https://www.redfin.com/WA/Seattle/1424-NW-92nd-St-98117/home/177708448,NWMLS,1874231,N,Y,47.6960682,-122.3745252
PAST SALE,,Townhouse,9206 Mary Ave NW,Seattle,WA,98117,729900,2,2.0,Crown Hill,1227,8280,2021,1,595,,Pending,,,https://www.redfin.com/WA/Seattle/9206-Mary-Ave-NW-98117/home/177153494,NWMLS,1863094,N,Y,47.6963227,-122.3750814
PAST SALE,,Townhouse,13250 65th Ave S Unit D20,Seattle,WA,98178,599800,3,2.5,Bryn Mawr,1750,1658,2021,1,343,180,Pending,,,https://www.redfin.com/WA/Seattle/13250-65th-Ave-S-98178/unit-D20/home/175264621,NWMLS,1785710,N,Y,47.4855317,-122.2531252
