SALE TYPE,SOLD DATE,PROPERTY TYPE,ADDRESS,CITY,STATE OR PROVINCE,ZIP OR POSTAL CODE,PRICE,BEDS,BATHS,LOCATION,SQUARE FEET,LOT SIZE,YEAR BUILT,DAYS ON MARKET,$/SQUARE FEET,HOA/MONTH,STATUS,NEXT OPEN HOUSE START TIME,NEXT OPEN HOUSE END TIME,URL (SEE https://www.redfin.com/buy-a-home/comparative-market-analysis FOR INFO ON PRICING),SOURCE,MLS#,FAVORITE,INTERESTED,LATITUDE,LONGITUDE
MLS Listing,,Townhouse,3904 14th Ave S Unit B,Seattle,WA,98108,475000,2,1.5,Beacon Hill,730,1339,2006,1,651,,Active,June-4-2022 02:00 PM,June-4-2022 04:00 PM,https://www.redfin.com/WA/Seattle/3904-14th-Ave-S-98108/unit-B/home/12448441,NWMLS,1945976,N,Y,47.5686845,-122.3142345
MLS Listing,,Condo/Co-op,1106 E Thomas St #4,Seattle,WA,98102,545000,1,1.0,Capitol Hill,817,,1900,1,667,515,Active,June-5-2022 11:00 AM,June-5-2022 01:00 PM,https://www.redfin.com/WA/Seattle/1106-E-Thomas-St-98102/unit-4/home/28465,NWMLS,1946022,N,Y,47.6213183,-122.3173821
MLS Listing,,Condo/Co-op,110 19th Ave E #302,Seattle,WA,98112,888000,2,2.0,Capitol Hill,1244,,1999,1,714,649,Active,,,https://www.redfin.com/WA/Seattle/110-19th-Ave-E-98112/unit-302/home/38686,NWMLS,1946235,N,Y,47.6188844,-122.3070202
MLS Listing,,Single Family Residential,8430 Fawcett Ave,Tacoma,WA,98444,449000,3,1.0,Tacoma,1028,8400,1954,1,437,,Active,,,https://www.redfin.com/WA/Tacoma/8430-Fawcett-Ave-98444/home/2752027,NWMLS,1946409,N,Y,47.1798218,-122.4383635
MLS Listing,,Single Family Residential,3305 SE 12th,Tacoma,WA,98405,299000,2,1.0,North Tacoma,842,5000,1890,1,355,,Active,,,https://www.redfin.com/WA/Tacoma/3305-S-12th-St-98405/home/2772642,NWMLS,1946405,N,Y,47.2501904,-122.4796413
MLS Listing,,Single Family Residential,336 NE 59th St,Seattle,WA,98105,900000,4,1.5,Green Lake,1720,3000,1924,1,523,,Active,,,https://www.redfin.com/WA/Seattle/336-NE-59th-St-98105/home/304676,NWMLS,1944654,N,Y,47.671717,-122.323865
MLS Listing,,Single Family Residential,3735 S Alaska St,Tacoma,WA,98418,339500,2,1.0,South Tacoma,1176,6000,1910,1,289,,Active,,,https://www.redfin.com/WA/Tacoma/3735-S-Alaska-St-98418/home/2978355,NWMLS,1945719,N,Y,47.2234961,-122.4575549
MLS Listing,,Single Family Residential,3505 N Verde St,Tacoma,WA,98407,899950,5,3.5,North Tacoma,2826,4050,1927,1,318,,Active,,,https://www.redfin.com/WA/Tacoma/3505-N-Verde-St-98407/home/2840899,NWMLS,1946371,N,Y,47.2799132,-122.4970401
MLS Listing,,Single Family Residential,10059 Interlake Ave N,Seattle,WA,98133,649000,3,1.0,Licton Springs,750,5120,1929,1,865,,Active,June-5-2022 12:00 PM,June-5-2022 02:00 PM,https://www.redfin.com/WA/Seattle/10059-Interlake-Ave-N-98133/home/104531,NWMLS,1942577,N,Y,47.7030769,-122.3409173
MLS Listing,,Single Family Residential,1719 S 35th St,Tacoma,WA,98418,489950,4,1.0,South Tacoma,1532,6000,1951,1,320,,Active,June-4-2022 12:00 PM,June-4-2022 02:00 PM,https://www.redfin.com/WA/Tacoma/1719-S-35th-St-98418/home/2915591,NWMLS,1945977,N,Y,47.2283703,-122.4587121
MLS Listing,,Single Family Residential,5129 N Highland St,Ruston,WA,98407,949000,3,3.5,Ruston,2900,5935,1992,1,327,,Active,June-4-2022 01:00 PM,June-4-2022 03:00 PM,https://www.redfin.com/WA/Ruston/5129-N-Highland-St-98407/home/2843249,NWMLS,1943461,N,Y,47.2991867,-122.5140049
MLS Listing,,Single Family Residential,3517 42nd Ave NE,Tacoma,WA,98422,885000,4,2.5,Northshore,2648,10983,1998,1,334,34,Active,,,https://www.redfin.com/WA/Tacoma/3517-42nd-Ave-NE-98422/home/2865097,NWMLS,1946310,N,Y,47.2891323,-122.3912254
MLS Listing,,Single Family Residential,4620 N 24th St,Tacoma,WA,98406,929000,4,2.5,North Tacoma,2634,6444,2012,1,353,,Active,June-5-2022 01:00 PM,June-5-2022 04:00 PM,https://www.redfin.com/WA/Tacoma/4620-N-24th-St-98406/home/23427238,NWMLS,1945991,N,Y,47.2689672,-122.5002023
MLS Listing,,Single Family Residential,3218 SW 97th St,Seattle,WA,98126,529995,2,1.0,West Seattle,740,6840,1942,1,716,,Active,June-4-2022 01:00 PM,June-4-2022 03:00 PM,https://www.redfin.com/WA/Seattle/3218-SW-97th-St-98126/home/154801,NWMLS,1946141,N,Y,47.5168161,-122.3744505
MLS Listing,,Single Family Residential,8834 Tacoma Ave S,Tacoma,WA,98444,459950,4,2.0,Fern Hill,1320,6199,1955,1,348,,Active,,,https://www.redfin.com/WA/Tacoma/8834-Tacoma-Ave-S-98444/home/2792914,NWMLS,1946295,N,Y,47.1760984,-122.4397919
MLS Listing,,Condo/Co-op,1640 18th St #6,Seattle,WA,98122,325000,1,1.0,Capitol Hill,600,,1927,1,542,570,Active,,,https://www.redfin.com/WA/Seattle/1640-18th-Ave-98122/unit-6/home/47661,NWMLS,1945369,N,Y,47.6164759,-122.3085596
MLS Listing,,Single Family Residential,3127 58 Ave NE,Tacoma,WA,98422,624990,5,2.0,North Tacoma,1986,5662,1989,1,315,,Active,June-4-2022 03:30 PM,June-4-2022 06:30 PM,https://www.redfin.com/WA/Tacoma/3127-58th-Ave-NE-98422/home/2936989,NWMLS,1945621,N,Y,47.2856385,-122.3696982
MLS Listing,,Condo/Co-op,126 SW 116TH St Unit E32,Seattle,WA,98146,239000,1,1.0,Seattle,777,,1982,1,308,464,Active,,,https://www.redfin.com/WA/Seattle/126-SW-116th-St-98146/unit-E32/home/35173,NWMLS,1946290,N,Y,47.4997131,-122.3351822
MLS Listing,,Condo/Co-op,1107 1st Ave #1001,Seattle,WA,98101,489000,1,1.0,Downtown,803,,1983,1,609,705,Active,June-4-2022 12:00 PM,June-4-2022 02:00 PM,https://www.redfin.com/WA/Seattle/1107-1st-Ave-98101/unit-1001/home/17854,NWMLS,1945569,N,Y,47.6054843,-122.3374113
MLS Listing,,Single Family Residential,1708 S M St,Tacoma,WA,98405,525000,3,2.0,Hilltop,1170,6500,1916,1,449,,Active,June-4-2022 02:00 PM,June-4-2022 04:00 PM,https://www.redfin.com/WA/Tacoma/1708-S-M-St-98405/home/2709923,NWMLS,1946042,N,Y,47.2451386,-122.4534471
MLS Listing,,Single Family Residential,18907 23rd Avenue Ct E,Tacoma,WA,98445,595000,4,2.5,Bethel,2376,4563,2013,1,250,28,Active,,,https://www.redfin.com/WA/Tacoma/18907-23rd-Ave-Ct-E-98445/home/23093767,NWMLS,1945795,N,Y,47.084771,-122.3964314
MLS Listing,,Single Family Residential,7012 S Bell St,Tacoma,WA,98408,414900,3,1.0,South Tacoma,1130,7500,1953,1,367,,Active,,,https://www.redfin.com/WA/Tacoma/7012-S-Bell-St-98408/home/2942781,NWMLS,1945578,N,Y,47.1934693,-122.4329673
MLS Listing,,Condo/Co-op,4422 Bagley Ave N #102,Seattle,WA,98103,569900,1,1.0,Wallingford,768,,2006,1,742,372,Active,,,https://www.redfin.com/WA/Seattle/4422-Bagley-Ave-N-98103/unit-102/home/22685397,NWMLS,1943796,N,Y,47.6610866,-122.3323044
MLS Listing,,Condo/Co-op,13229 Linden Ave N Unit 408B,Seattle,WA,98133,320000,1,1.0,Bitter Lake,696,,1969,1,460,279,Active,,,https://www.redfin.com/WA/Seattle/13229-Linden-Ave-N-98133/unit-408B/home/18046,NWMLS,1945986,N,Y,47.725678,-122.3490358
PAST SALE,,Townhouse,604 #C N 43rd St,Seattle,WA,98103,810000,2,2.0,Fremont,936,700,2022,1,865,,Pending,,,https://www.redfin.com/WA/Seattle/604-C-N-43rd-St-98103/home/179742555,NWMLS,1945314,N,Y,47.659112,-122.350782
MLS Listing,,Townhouse,4801 Dayton Ave N Unit B,Seattle,WA,98103,850000,2,2.0,Fremont,1180,639,2022,1,720,35,Active,June-4-2022 12:00 PM,June-4-2022 03:00 PM,https://www.redfin.com/WA/Seattle/4801-Dayton-Ave-N-98103/unit-B/home/173648945,NWMLS,1939986,N,Y,47.6636064,-122.3527063
MLS Listing,,Townhouse,1713 NW 61st St,Seattle,WA,98107,999999,2,2.0,Ballard,1430,1794,2014,1,699,,Active,June-4-2022 12:00 PM,June-4-2022 02:00 PM,https://www.redfin.com/WA/Seattle/1713-NW-61st-St-98107/home/103940779,NWMLS,1945699,N,Y,47.6727865,-122.3795351
MLS Listing,,Single Family Residential,7512 32nd Ave NE Unit A,Seattle,WA,98115,879999,2,2.5,Wedgwood,840,2098,2022,1,1048,318,Active,June-4-2022 12:00 PM,June-4-2022 03:00 PM,https://www.redfin.com/WA/Seattle/7512-32nd-Ave-NE-98115/unit-A/home/179742381,NWMLS,1945556,N,Y,47.6834685,-122.2934169
MLS Listing,,Condo/Co-op,583 Battery St Unit 712N,Seattle,WA,98121,965000,2,2.0,Belltown,1234,,2015,1,782,1157,Active,June-4-2022 11:00 AM,June-4-2022 01:00 PM,https://www.redfin.com/WA/Seattle/583-Battery-St-98121/unit-712N/home/82688674,NWMLS,1945561,N,Y,47.617063,-122.3436142
MLS Listing,,Condo/Co-op,2328 10th Ave E #304,Seattle,WA,98102,725000,2,2.0,Capitol Hill,1222,9000,1928,1,593,756,Active,June-4-2022 01:00 PM,June-4-2022 04:00 PM,https://www.redfin.com/WA/Seattle/2328-10th-Ave-E-98102/unit-304/home/49506,NWMLS,1945811,N,Y,47.6404061,-122.3197889
MLS Listing,,Single Family Residential,5810 S L St,Tacoma,WA,98408,399950,3,2.0,Tacoma,1014,4646,1918,1,394,,Active,,,https://www.redfin.com/WA/Tacoma/5810-S-L-St-98408/home/2943032,NWMLS,1944405,N,Y,47.204673,-122.4500473
MLS Listing,,Single Family Residential,1560 S Ferdinand St,Seattle,WA,98108,599000,3,2.0,Beacon Hill,1340,3198,1953,1,447,,Active,June-4-2022 12:00 PM,June-4-2022 03:00 PM,https://www.redfin.com/WA/Seattle/1560-S-Ferdinand-St-98108/home/481804,NWMLS,1943882,N,Y,47.5591926,-122.3108438
MLS Listing,,Condo/Co-op,588 Bell St Unit 1503S,Seattle,WA,98121,999000,2,2.0,Denny Triangle,1156,,2015,1,864,1058,Active,June-4-2022 03:00 PM,June-4-2022 05:00 PM,https://www.redfin.com/WA/Seattle/588-Bell-St-98121/unit-1503S/home/52884420,NWMLS,1945622,N,Y,47.6164498,-122.3428091
MLS Listing,,Single Family Residential,5801 Phinney Ave N #103,Seattle,WA,98103,522000,1,1.0,Phinney Ridge,745,745,1979,1,701,390,Active,June-4-2022 01:00 PM,June-4-2022 03:00 PM,https://www.redfin.com/WA/Seattle/5801-Phinney-Ave-N-98103/unit-103/home/44638,NWMLS,1945533,N,Y,47.6713852,-122.3547334
MLS Listing,,Single Family Residential,4018 NE 95th St W,Seattle,WA,98115,825000,2,1.0,Wedgwood,770,7200,1923,1,1071,,Active,June-4-2022 10:00 AM,June-4-2022 01:00 PM,https://www.redfin.com/WA/Seattle/4018-NE-95th-St-98115/home/113608,NWMLS,1944665,N,Y,47.6976067,-122.2841955
MLS Listing,,Single Family Residential,4104 6th Ave,Tacoma,WA,98406,699000,4,2.0,Tacoma,1968,3461,1929,1,355,,Active,June-4-2022 11:00 AM,June-4-2022 01:00 PM,https://www.redfin.com/WA/Tacoma/4104-6th-Ave-98405/home/2967122,NWMLS,1945677,N,Y,47.2550932,-122.4919488
MLS Listing,,Condo/Co-op,588 Bell St Unit 1808S,Seattle,WA,98121,985000,2,2.0,Belltown,1006,,2016,1,979,920,Active,June-4-2022 11:00 AM,June-4-2022 01:00 PM,https://www.redfin.com/WA/Seattle/588-Bell-St-98121/unit-1808S/home/144388834,NWMLS,1945547,N,Y,47.6164498,-122.3428091
MLS Listing,,Condo/Co-op,401 9th Ave N #305,Seattle,WA,98109,480000,1,1.0,South Lake Union,663,,2009,1,724,397,Active,June-4-2022 02:00 PM,June-4-2022 04:00 PM,https://www.redfin.com/WA/Seattle/401-9th-Ave-N-98109/unit-305/home/21616811,NWMLS,1941345,N,Y,47.6224387,-122.3401218
MLS Listing,,Single Family Residential,8011 Roosevelt Way NE,Seattle,WA,98115,999999,4,2.0,Maple Leaf,2100,3960,1927,1,476,,Active,June-4-2022 11:00 AM,June-4-2022 02:00 PM,https://www.redfin.com/WA/Seattle/8011-Roosevelt-Way-NE-98115/home/108332,NWMLS,1944977,N,Y,47.687153,-122.3178643
MLS Listing,,Condo/Co-op,2201 3rd Ave #1804,Seattle,WA,98121,725000,2,2.0,Belltown,988,,1979,1,734,1021,Active,,,https://www.redfin.com/WA/Seattle/2201-3rd-Ave-98121/unit-1804/home/71905,NWMLS,1945619,N,Y,47.6139031,-122.3440384
MLS Listing,,Single Family Residential,11045 Alton Ave NE,Seattle,WA,98125,950000,3,2.0,Meadowbrook,2000,8534,1953,1,475,,Active,June-4-2022 12:00 PM,June-4-2022 02:00 PM,https://www.redfin.com/WA/Seattle/11045-Alton-Ave-NE-98125/home/111483,NWMLS,1941669,N,Y,47.7095743,-122.283657
MLS Listing,,Single Family Residential,4520 E C St,Tacoma,WA,98404,799950,6,4.0,Tacoma,2792,5680,1927,1,287,,Active,,,https://www.redfin.com/WA/Tacoma/4520-E-C-St-98404/home/179741216,NWMLS,1945925,N,Y,47.2160483,-122.4284997
MLS Listing,,Single Family Residential,4417 33rd Ave S,Seattle,WA,98108,975000,3,2.0,Columbia City,1711,1953,2014,1,570,159,Active,June-4-2022 01:00 PM,June-4-2022 04:00 PM,https://www.redfin.com/WA/Seattle/4417-33rd-Ave-S-98108/home/28581750,NWMLS,1940604,N,Y,47.5639065,-122.2917937
MLS Listing,,Condo/Co-op,1310 N Lucas Pl #202,Seattle,WA,98103,609950,2,2.0,Queen Anne,923,,2004,1,661,799,Active,June-4-2022 12:00 PM,June-4-2022 03:00 PM,https://www.redfin.com/WA/Seattle/1310-N-Lucas-Pl-98103/unit-202/home/11906550,NWMLS,1946060,N,Y,47.6560652,-122.3421412
MLS Listing,,Single Family Residential,3589 McKinley Ave,Tacoma,WA,98404,495000,3,1.0,McKinley,2104,5000,1946,1,235,,Active,,,https://www.redfin.com/WA/Tacoma/3589-E-McKinley-Ave-98404/home/2918464,NWMLS,1942226,N,Y,47.2269616,-122.4204818
MLS Listing,,Single Family Residential,208 17th Ave S,Seattle,WA,98144,900000,3,1.5,Central Area,1640,2640,1908,1,549,,Active,June-4-2022 12:00 PM,June-4-2022 02:00 PM,https://www.redfin.com/WA/Seattle/208-17th-Ave-S-98144/home/145433,NWMLS,1945711,N,Y,47.6005398,-122.3099601
MLS Listing,,Single Family Residential,8349 17th Ave NW,Seattle,WA,98117,995000,3,2.0,Loyal Heights,1760,4005,1930,1,565,,Active,June-5-2022 11:00 AM,June-5-2022 01:00 PM,https://www.redfin.com/WA/Seattle/8349-17th-Ave-NW-98117/home/164097,NWMLS,1945593,N,Y,47.690108,-122.3792072
MLS Listing,,Single Family Residential,7514 28th Ave NW Unit C,Seattle,WA,98117,829950,2,2.5,Sunset Hill,1006,4284,2022,1,825,14,Active,June-4-2022 12:00 PM,June-4-2022 03:00 PM,https://www.redfin.com/WA/Seattle/7514-28th-Ave-NW-98117/unit-C/home/179711111,NWMLS,1946013,N,Y,47.6836075,-122.392704
MLS Listing,,Single Family Residential,109 NE 61st St,Seattle,WA,98115,749950,2,1.0,Green Lake,790,1200,1909,1,949,,Active,June-5-2022 02:00 PM,June-5-2022 04:00 PM,https://www.redfin.com/WA/Seattle/109-NE-61st-St-98115/home/304021,NWMLS,1945852,N,Y,47.6727257,-122.3276711
MLS Listing,,Condo/Co-op,201 Galer St #370,Seattle,WA,98109,515000,1,1.0,Queen Anne,685,,1908,1,752,697,Active,,,https://www.redfin.com/WA/Seattle/201-Galer-St-98109/unit-370/home/8190369,NWMLS,1943989,N,Y,47.6319635,-122.3520375
MLS Listing,,Single Family Residential,1123 N Fife St,Tacoma,WA,98406,735000,3,2.0,North Tacoma,1563,3750,1900,1,470,,Active,June-4-2022 11:00 AM,June-4-2022 01:00 PM,https://www.redfin.com/WA/Tacoma/1123-N-Fife-St-98406/home/2743096,NWMLS,1925458,N,Y,47.2606356,-122.4700562
MLS Listing,,Single Family Residential,9720 48th Ave E,Tacoma,WA,98446,984500,3,3.0,Summit,3003,91476,2008,1,328,,Active,,,https://www.redfin.com/WA/Tacoma/9720-48th-Ave-E-98446/home/2551326,NWMLS,1945901,N,Y,47.1681598,-122.365379
MLS Listing,,Townhouse,4206 S Greenbelt Station Dr,Seattle,WA,98118,699000,3,2.5,Beacon Hill,1500,2025,2017,1,466,135,Active,,,https://www.redfin.com/WA/Seattle/4206-S-Greenbelt-Station-Dr-98118/home/109661731,NWMLS,1945951,N,Y,47.5245501,-122.2804924
MLS Listing,,Townhouse,1826 E 26th Ave,Seattle,WA,98122,834950,3,2.0,Madison Valley,1334,747,2022,1,626,,Active,,,https://www.redfin.com/WA/Seattle/1826-26th-Ave-98122/home/147982,NWMLS,1941837,N,Y,47.6184865,-122.2983138
MLS Listing,,Condo/Co-op,2360 43rd Ave E #109,Seattle,WA,98112,950000,2,2.0,Madison Park,1025,,1966,1,927,1150,Active,June-5-2022 12:00 PM,June-5-2022 02:00 PM,https://www.redfin.com/WA/Seattle/2360-43rd-Ave-E-98112/unit-109/home/24850,NWMLS,1944862,N,Y,47.6407002,-122.276123
MLS Listing,,Condo/Co-op,1515 Dock St #409,Tacoma,WA,98402,499000,1,1.0,Tacoma,1096,,2008,1,455,489,Active,,,https://www.redfin.com/WA/Tacoma/1515-Dock-St-98402/unit-409/home/18602566,NWMLS,1943837,N,Y,47.2491064,-122.4346829
MLS Listing,,Townhouse,8751 H 14th Ave NW,Seattle,WA,98117,879950,3,2.0,Crown Hill,1485,1150,2022,1,593,,Active,June-5-2022 02:00 PM,June-5-2022 04:00 PM,https://www.redfin.com/WA/Seattle/8751-14th-Ave-NW-98117/home/100918,NWMLS,1937648,N,Y,47.6937636,-122.3745966
MLS Listing,,Single Family Residential,4514 S J St,Tacoma,WA,98418,475000,2,1.0,Lincoln,1122,6500,1916,1,423,,Active,,,https://www.redfin.com/WA/Tacoma/4514-S-J-St-98418/home/2979129,NWMLS,1941987,N,Y,47.2162191,-122.4467449
MLS Listing,,Single Family Residential,1417 S 99th St,Seattle,WA,98108,529900,4,2.0,Allentown,1200,8000,1934,1,442,,Active,,,https://www.redfin.com/WA/Seattle/1417-S-99th-St-98108/home/187471,NWMLS,1944616,N,Y,47.514419,-122.3162042
MLS Listing,,Townhouse,2031 25th Ave S #54,Seattle,WA,98144,699990,2,2.0,Seattle,1192,,2022,1,587,200,Active,June-4-2022 11:00 AM,June-4-2022 05:00 PM,https://www.redfin.com/WA/Seattle/2031-25th-Ave-S-98144/unit-54/home/179739534,NWMLS,1945885,N,Y,47.5847141,-122.3007223
MLS Listing,,Townhouse,8506 18th Ave NW,Seattle,WA,98117,449950,1,1.0,Crown Hill,552,343,2022,1,815,1,Active,June-4-2022 11:00 AM,June-4-2022 01:00 PM,https://www.redfin.com/WA/Seattle/8506-18th-Ave-NW-98117/home/179739388,NWMLS,1928705,N,Y,47.6908443,-122.3797929
MLS Listing,,Townhouse,8508 18th Ave NW,Seattle,WA,98117,729950,3,2.0,Crown Hill,1315,701,2022,1,555,1,Active,June-4-2022 11:00 AM,June-4-2022 01:00 PM,https://www.redfin.com/WA/Seattle/8508-18th-Ave-NW-98117/home/174501406,NWMLS,1928371,N,Y,47.6909279,-122.3800286
