SALE TYPE,SOLD DATE,PROPERTY TYPE,ADDRESS,CITY,STATE OR PROVINCE,ZIP OR POSTAL CODE,PRICE,BEDS,BATHS,LOCATION,SQUARE FEET,LOT SIZE,YEAR BUILT,DAYS ON MARKET,$/SQUARE FEET,HOA/MONTH,STATUS,NEXT OPEN HOUSE START TIME,NEXT OPEN HOUSE END TIME,URL (SEE https://www.redfin.com/buy-a-home/comparative-market-analysis FOR INFO ON PRICING),SOURCE,MLS#,FAVORITE,INTERESTED,LATITUDE,LONGITUDE
MLS Listing,,Single Family Residential,1615 S Grant Ave,Tacoma,WA,98405,535000,2,2.0,Central Tacoma,2344,6500,1945,1,228,,Active,,,https://www.redfin.com/WA/Tacoma/1615-S-Grant-Ave-98405/home/2585319,NWMLS,1934994,N,Y,47.2454042,-122.4586475
MLS Listing,,Single Family Residential,4924 S Oakes St,Tacoma,WA,98409,449900,4,2.5,South Tacoma,1816,6000,1940,1,248,,Active,,,https://www.redfin.com/WA/Tacoma/4924-S-Oakes-St-98409/home/2969528,NWMLS,1935493,N,Y,47.2119219,-122.4727661
MLS Listing,,Single Family Residential,15220 17th Avenue Ct E,Tacoma,WA,98445,439000,3,2.0,Tacoma,2062,11219,1976,1,213,,Active,,,https://www.redfin.com/WA/Tacoma/15220-17th-Ave-Ct-E-98445/home/2921311,NWMLS,1934034,N,Y,47.1175377,-122.4062393
MLS Listing,,Single Family Residential,3715 36th Ave SW,Seattle,WA,98126,950000,3,2.0,Belvidere,1950,4048,1929,1,487,,Active,,,https://www.redfin.com/WA/Seattle/3715-36th-Ave-SW-98126/home/329036,NWMLS,1932848,N,Y,47.5707065,-122.3774227
MLS Listing,,Single Family Residential,8205 S 123rd Pl,Seattle,WA,98178,925000,5,3.0,Bryn Mawr,2840,9000,1978,1,326,,Active,,,https://www.redfin.com/WA/Seattle/8205-S-123rd-Pl-98178/home/197473,NWMLS,1922428,N,Y,47.4923876,-122.2299897
MLS Listing,,Single Family Residential,1417 S Madison St,Tacoma,WA,98405,519000,3,1.5,North Tacoma,1403,6000,1979,1,370,,Active,May-21-2022 11:00 AM,May-21-2022 01:00 PM,https://www.redfin.com/WA/Tacoma/1417-S-Madison-St-98405/home/2958978,NWMLS,1914511,N,Y,47.2473473,-122.4899403
MLS Listing,,Single Family Residential,4609 48th Ave S,Seattle,WA,98118,845000,3,2.0,Lakewood,1250,7200,1944,1,676,,Active,,,https://www.redfin.com/WA/Seattle/4609-48th-Ave-S-98118/home/491973,NWMLS,1934500,N,Y,47.5613964,-122.2735361
MLS Listing,,Single Family Residential,9828 Patterson St S,Tacoma,WA,98444,399500,3,1.5,Fern Hill,1064,11356,1942,1,375,,Active,,,https://www.redfin.com/WA/Tacoma/9828-Patterson-St-S-98444/home/2793749,NWMLS,1934853,N,Y,47.16753,-122.437668
MLS Listing,,Townhouse,3826 23rd Ave W,Seattle,WA,98199,880000,3,2.5,Magnolia,1362,771,2016,1,646,,Active,May-21-2022 12:00 PM,May-21-2022 03:00 PM,https://www.redfin.com/WA/Seattle/3826-23rd-Ave-W-98199/home/109662259,NWMLS,1922938,N,Y,47.6548572,-122.385755
MLS Listing,,Single Family Residential,3214 Lafayette Ave S,Seattle,WA,98144,880000,4,2.0,N Beacon Hill,2540,4000,1928,1,346,,Active,May-21-2022 12:00 AM,May-21-2022 03:00 AM,https://www.redfin.com/WA/Seattle/3214-Lafayette-Ave-S-98144/home/167430,NWMLS,1922832,N,Y,47.5746208,-122.3099293
MLS Listing,,Single Family Residential,8633 S Thompson Ave,Tacoma,WA,98444,199990,1,1.0,Fern Hill,736,6000,1911,1,272,,Active,,,https://www.redfin.com/WA/Tacoma/8633-S-Thompson-Ave-98444/home/2915502,NWMLS,1935407,N,Y,47.1778998,-122.4442943
MLS Listing,,Single Family Residential,8019 S 112th St,Seattle,WA,98178,679950,3,2.0,Skyway,1460,7994,1953,1,466,,Active,,,https://www.redfin.com/WA/Seattle/8019-S-112th-St-98178/home/197559,NWMLS,1935355,N,Y,47.5025921,-122.2319008
MLS Listing,,Condo/Co-op,2425 33rd Ave W #103,Seattle,WA,98199,949950,2,2.0,Magnolia,1579,,2003,1,602,784,Active,,,https://www.redfin.com/WA/Seattle/2425-33rd-Ave-W-98199/unit-103/home/2213,NWMLS,1928339,N,Y,47.640238,-122.3999064
MLS Listing,,Single Family Residential,11806 87th Ave S,Seattle,WA,98178,525000,3,1.0,Bryn Mawr,1300,9600,1936,1,404,,Active,,,https://www.redfin.com/WA/Seattle/11806-87th-Ave-S-98178/home/197301,NWMLS,1934622,N,Y,47.4964723,-122.2226895
MLS Listing,,Condo/Co-op,630 13th Ave E #10,Seattle,WA,98102,239999,1,1.0,Capitol Hill,415,,1950,1,578,359,Active,,,https://www.redfin.com/WA/Seattle/630-13th-Ave-E-98102/unit-10/home/33253,NWMLS,1934774,N,Y,47.6251496,-122.3154693
MLS Listing,,Condo/Co-op,699 John St #710,Seattle,WA,98109,399900,1,1.0,South Lake Union,560,,2009,1,714,403,Active,,,https://www.redfin.com/WA/Seattle/699-John-St-98109/unit-710/home/28624301,NWMLS,1934729,N,Y,47.6193515,-122.3442176
MLS Listing,,Townhouse,1408 NW 92nd St,Seattle,WA,98117,699900,2,2.0,Crown Hill,1164,1,2022,1,601,,Active,,,https://www.redfin.com/WA/Seattle/1408-NW-92nd-St-98117/home/178360181,NWMLS,1935121,N,Y,47.6960648,-122.3742493
MLS Listing,,Townhouse,9231 B 16th Ave SW,Seattle,WA,98106,793800,3,3.0,Highland Park,1835,1200,2022,1,433,130,Active,,,https://www.redfin.com/WA/Seattle/9231-16th-Ave-SW-98106/home/171150484,NWMLS,1933578,N,Y,47.520024,-122.355137
MLS Listing,,Single Family Residential,10202 13th Avenue Ct E,Tacoma,WA,98445,249950,3,2.0,Midland,1080,9000,1985,1,231,,Active,,,https://www.redfin.com/WA/Tacoma/10202-13th-Ave-Ct-E-98445/home/2968807,NWMLS,1931256,N,Y,47.16451,-122.41177
MLS Listing,,Townhouse,2132 N 147th St Unit E,Shoreline,WA,98133,949990,3,3.5,Parkwood,1733,2016,2022,1,548,400,Active,,,https://www.redfin.com/WA/Shoreline/2132-N-147th-St-98133/unit-E/home/179434534,NWMLS,1934958,N,Y,47.735749,-122.3329506
