SALE TYPE,SOLD DATE,PROPERTY TYPE,ADDRESS,CITY,STATE OR PROVINCE,ZIP OR POSTAL CODE,PRICE,BEDS,BATHS,LOCATION,SQUARE FEET,LOT SIZE,YEAR BUILT,DAYS ON MARKET,$/SQUARE FEET,HOA/MONTH,STATUS,NEXT OPEN HOUSE START TIME,NEXT OPEN HOUSE END TIME,URL (SEE https://www.redfin.com/buy-a-home/comparative-market-analysis FOR INFO ON PRICING),SOURCE,MLS#,FAVORITE,INTERESTED,LATITUDE,LONGITUDE
PAST SALE,,Single Family Residential,1749 N James St,Tacoma,WA,98406,549000,3,1.5,North Tacoma,1408,9425,1958,1,390,,Pending,,,https://www.redfin.com/WA/Tacoma/1749-N-James-St-98406/home/2976307,NWMLS,2030272,N,Y,47.2665188,-122.5322299
MLS Listing,,Townhouse,9249 35th Ave SW Unit D,Seattle,WA,98126,585000,2,2.0,Fauntleroy,1320,824,2020,1,443,,Active,February-4-2023 11:00 AM,February-4-2023 01:00 PM,https://www.redfin.com/WA/Seattle/9249-35th-Ave-SW-98126/unit-D/home/174038259,NWMLS,2032337,N,Y,47.5195504,-122.3773214
MLS Listing,,Condo/Co-op,2530 15th Ave W #602,Seattle,WA,98119,499999,2,2.0,Queen Anne,1304,,2000,2,383,1203,Active,,,https://www.redfin.com/WA/Seattle/2530-15th-Ave-W-98119/unit-602/home/52735,NWMLS,2032159,N,Y,47.6416973,-122.3757786
MLS Listing,,Single Family Residential,5818 S Sheridan Ave,Tacoma,WA,98408,415000,3,1.0,Tacoma,1331,8480,1928,2,312,,Active,February-5-2023 11:00 AM,February-5-2023 01:00 PM,https://www.redfin.com/WA/Tacoma/5818-S-Sheridan-Ave-98408/home/2592745,NWMLS,2031147,N,Y,47.2040739,-122.4527415
PAST SALE,,Townhouse,1424 NW 92nd St,Seattle,WA,98117,704900,2,2.0,Crown Hill,1164,1,2022,1,606,,Pending,,,https://www.redfin.com/WA/Seattle/1424-NW-92nd-St-98117/home/177708448,NWMLS,1874231,N,Y,47.6960682,-122.3745252
PAST SALE,,Condo/Co-op,800 Columbia St #908,Seattle,WA,98104,681000,1,1.0,First Hill,607,,2023,1,1122,613,Pending,,,https://www.redfin.com/WA/Seattle/800-Columbia-St-98104/unit-908/home/179158874,NWMLS,1921462,N,Y,47.6067442,-122.3271536
PAST SALE,,Townhouse,2356 N 145th St Unit D,Shoreline,WA,98133,768880,3,2.5,Shoreline,1803,,2023,1,426,190,Pending,,,https://www.redfin.com/WA/Shoreline/2356-N-145th-St-98133/unit-D/home/183801830,NWMLS,2027670,N,Y,47.7342842,-122.3291543
PAST SALE,April-5-2005,Single Family Residential,3635 23rd Ave W,Seattle,WA,98199,749950,5,2.0,Magnolia,2980,7000,1906,1,252,,Pending,,,https://www.redfin.com/WA/Seattle/3635-23rd-Ave-W-98199/home/123856,NWMLS,2019943,N,Y,47.6531649,-122.3863225
PAST SALE,,Townhouse,2638 NW 56th St Unit A,Seattle,WA,98107,799999,3,2.0,Ballard,1381,788,2023,1,579,,Pending,,,https://www.redfin.com/WA/Seattle/2638-NW-56th-St-98107/unit-A/home/183958459,NWMLS,2030629,N,Y,47.6696162,-122.391823
PAST SALE,,Townhouse,6500 S 133rd St Unit A4,Seattle,WA,98178,589900,3,2.5,Bryn Mawr,1750,846,2021,1,337,180,Pending,,,https://www.redfin.com/WA/Seattle/6500-S-133rd-St-98178/unit-A4/home/174490854,NWMLS,1733781,N,Y,47.4840644,-122.252426
PAST SALE,,Condo/Co-op,2510 6th Ave #1810,Seattle,WA,98121,865000,1,1.0,Denny Triangle,985,,2021,1,878,930,Pending,,,https://www.redfin.com/WA/Seattle/2510-6th-Ave-98121/unit-1810/home/179586217,NWMLS,2028054,N,Y,47.6182832,-122.344644
PAST SALE,,Condo/Co-op,800 Columbia St #1501,Seattle,WA,98104,716000,1,1.0,First Hill,589,,2023,1,1216,595,Pending,,,https://www.redfin.com/WA/Seattle/800-Columbia-St-98104/unit-1501/home/179158862,NWMLS,1921458,N,Y,47.6067442,-122.3271536
PAST SALE,,Condo/Co-op,121 Stewart St #1404,Seattle,WA,98101,739000,1,1.0,Downtown,1003,,2020,1,737,817,Pending,,,https://www.redfin.com/WA/Seattle/121-Stewart-St-98101/unit-1404/home/175699657,NWMLS,2025541,N,Y,47.6106852,-122.3406126
PAST SALE,,Townhouse,1420 NW 92nd St,Seattle,WA,98117,712900,2,2.0,Crown Hill,1164,1,2022,1,612,,Pending,,,https://www.redfin.com/WA/Seattle/1420-NW-92nd-St-98117/home/178357225,NWMLS,1891553,N,Y,47.6960674,-122.3744563
PAST SALE,,Townhouse,8344 C (NC-3) 13th Ave NW,Seattle,WA,98117,999950,3,2.5,Crown Hill,1807,1114,2022,1,553,,Pending,,,https://www.redfin.com/WA/Seattle/8344-C-NC-3-13th-Ave-NW-98117/home/179847140,NWMLS,1950034,N,Y,47.690053,-122.372381
PAST SALE,November-30-2020,Condo/Co-op,721 Boylston Ave E #105,Seattle,WA,98102,525000,1,1.0,Capitol Hill,690,,1930,1,761,432,Pending,,,https://www.redfin.com/WA/Seattle/710-Belmont-Pl-E-98102/unit-105/home/48858,NWMLS,2028448,N,Y,47.625874,-122.323956
PAST SALE,,Townhouse,2636 NW 56th St Unit B,Seattle,WA,98107,839999,2,2.0,Ballard,1496,1224,2023,1,561,,Pending,,,https://www.redfin.com/WA/Seattle/2636-NW-56th-St-98107/unit-B/home/184068324,NWMLS,2032037,N,Y,47.6696713,-122.3917518
PAST SALE,,Single Family Residential,3008 SW Cloverdale St,Seattle,WA,98126,629000,2,2.5,Westwood,1112,1866,2023,1,566,50,Pending,,,https://www.redfin.com/WA/Seattle/3008-SW-Cloverdale-St-98126/home/183899590,NWMLS,2029654,N,Y,47.5266598,-122.371795
PAST SALE,,Townhouse,966 N Allen Pl,Seattle,WA,98103,720000,2,2.0,Wallingford,1036,856,2022,1,695,,Pending,,,https://www.redfin.com/WA/Seattle/966-N-Allen-Pl-98103/home/181097302,NWMLS,2022938,N,Y,47.6607304,-122.3459124
PAST SALE,,Condo/Co-op,800 Columbia St #1715,Seattle,WA,98104,628000,0,1.0,First Hill,517,,2023,1,1215,522,Pending,,,https://www.redfin.com/WA/Seattle/800-Columbia-St-98104/unit-1715/home/179158850,NWMLS,1921426,N,Y,47.6067442,-122.3271536
PAST SALE,,Townhouse,970 N Allen Pl,Seattle,WA,98103,718000,2,2.0,Wallingford,1036,656,2022,1,693,,Pending,,,https://www.redfin.com/WA/Seattle/970-N-Allen-Pl-98103/home/182037455,NWMLS,2031778,N,Y,47.6607134,-122.3458867
PAST SALE,,Townhouse,4810 Dayton Ave N,Seattle,WA,98103,719950,2,2.0,Fremont,968,656,2023,1,744,,Pending,,,https://www.redfin.com/WA/Seattle/4810-Dayton-Ave-N-98103/home/184005014,NWMLS,2031347,N,Y,47.6639027,-122.3525163
PAST SALE,,Townhouse,10144 Holman Rd NW,Seattle,WA,98177,649000,3,2.0,Ballard,1395,759,2023,1,465,,Pending,,,https://www.redfin.com/WA/Seattle/10144-Holman-Rd-Nw-98177/home/181296607,NWMLS,2015577,N,Y,47.702947,-122.3589638
PAST SALE,,Condo/Co-op,800 Columbia St #1701,Seattle,WA,98104,726000,1,1.0,First Hill,589,,2023,1,1233,595,Pending,,,https://www.redfin.com/WA/Seattle/800-Columbia-St-98104/unit-1701/home/179158864,NWMLS,1921438,N,Y,47.6067442,-122.3271536
PAST SALE,,Condo/Co-op,800 Columbia St #1107,Seattle,WA,98104,605900,1,1.0,Seattle,544,,2023,1,1114,550,Pending,,,https://www.redfin.com/WA/Seattle/800-Columbia-St-98104/unit-1107/home/183044486,NWMLS,2019393,N,Y,47.6067442,-122.3271536
PAST SALE,,Condo/Co-op,800 Columbia St #906,Seattle,WA,98104,649000,1,1.0,First Hill,601,,2023,1,1080,607,Pending,,,https://www.redfin.com/WA/Seattle/800-Columbia-St-98104/unit-906/home/179158876,NWMLS,1921467,N,Y,47.6067442,-122.3271536
PAST SALE,,Condo/Co-op,800 Columbia St #1507,Seattle,WA,98104,623000,1,1.0,First Hill,544,,2023,1,1145,550,Pending,,,https://www.redfin.com/WA/Seattle/800-Columbia-St-98104/unit-1507/home/179158865,NWMLS,1921443,N,Y,47.6067442,-122.3271536
PAST SALE,,Single Family Residential,2209 17th Ave S,Seattle,WA,98144,665000,2,1.5,Beacon Hill,920,1593,2023,1,723,29,Pending,,,https://www.redfin.com/WA/Seattle/2209-17th-Ave-S-98144/home/183938681,NWMLS,2030222,N,Y,47.5832835,-122.3110442
PAST SALE,,Single Family Residential,5116 54 St W,University Place,WA,98467,599950,5,3.0,University Place,1939,23522,1976,1,309,,Pending,,,https://www.redfin.com/WA/University-Place/5116-To-5118-54th-St-W-98467/home/2472762,NWMLS,2032227,N,Y,47.2074522,-122.5062832
PAST SALE,,Townhouse,5622 9th Ave NW,Seattle,WA,98107,709900,2,2.0,Woodland Park,1025,636,2023,1,693,,Pending,,,https://www.redfin.com/WA/Seattle/5622-9th-Ave-NW-98107/home/184069468,NWMLS,2029096,N,Y,47.6699973,-122.3683658
PAST SALE,,Townhouse,6209 9th Ave NE Unit A,Seattle,WA,98115,875000,3,2.5,Roosevelt,1450,1081,2015,1,603,,Pending,,,https://www.redfin.com/WA/Seattle/6209-9th-Ave-NE-98115/unit-A/home/106203758,NWMLS,2028376,N,Y,47.6737236,-122.3189808
PAST SALE,September-21-2022,Townhouse,4515 C Sunnyside Ave N,Seattle,WA,98103,749000,3,2.0,Wallingford,1463,1330,2022,1,512,,Pending,,,https://www.redfin.com/WA/Seattle/4515-Sunnyside-Ave-N-98103/unit-A/home/117973,NWMLS,2027516,N,Y,47.6618981,-122.3305376
PAST SALE,,Townhouse,8338 (NA-4) 13th Ave NW,Seattle,WA,98117,919900,3,2.0,Crown Hill,1652,500,2022,1,557,,Pending,,,https://www.redfin.com/WA/Seattle/8338-NA-4-13th-Ave-NW-98117/home/178300330,NWMLS,1875846,N,Y,47.689916,-122.372557
PAST SALE,,Townhouse,2356 N 145th St Unit A,Shoreline,WA,98133,910000,4,2.5,Shoreline,2275,,2023,1,400,190,Pending,,,https://www.redfin.com/WA/Shoreline/2356-N-145th-St-98133/unit-A/home/184116141,NWMLS,2033249,N,Y,47.7342842,-122.3291543
PAST SALE,,Single Family Residential,3004 SW Cloverdale St,Seattle,WA,98126,599000,2,2.5,Westwood,1116,1748,2023,1,537,50,Pending,,,https://www.redfin.com/WA/Seattle/3004-SW-Cloverdale-St-98126/home/183872460,NWMLS,2029581,N,Y,47.5266613,-122.3715527
PAST SALE,,Condo/Co-op,800 Columbia St #915,Seattle,WA,98104,598000,0,1.0,First Hill,539,,2023,1,1109,522,Pending,,,https://www.redfin.com/WA/Seattle/800-Columbia-St-98104/unit-915/home/179158881,NWMLS,1921461,N,Y,47.6067442,-122.3271536
PAST SALE,August-24-2022,Single Family Residential,6808 S Alaska St,Tacoma,WA,98408,595980,4,2.5,Wapato,2281,5000,2023,1,261,50,Pending,,,https://www.redfin.com/WA/Tacoma/6808-S-Alaska-St-98408/home/178471681,NWMLS,2027925,N,Y,47.1953042,-122.458904
PAST SALE,September-30-2002,Townhouse,5612 14th Ave NW Unit A,Seattle,WA,98107,869950,4,3.0,Ballard,1560,684,2022,1,558,,Pending,,,https://www.redfin.com/WA/Seattle/5612-14th-Ave-NW-98107/unit-A/home/494183,NWMLS,2030648,N,Y,47.6699262,-122.3730667
PAST SALE,,Condo/Co-op,800 Columbia St #1506,Seattle,WA,98104,669000,1,1.0,First Hill,601,,2023,1,1113,607,Pending,,,https://www.redfin.com/WA/Seattle/800-Columbia-St-98104/unit-1506/home/179158863,NWMLS,1921447,N,Y,47.6067442,-122.3271536
PAST SALE,,Condo/Co-op,800 Columbia St #1707,Seattle,WA,98104,633000,1,1.0,First Hill,544,,2023,1,1164,550,Pending,,,https://www.redfin.com/WA/Seattle/800-Columbia-St-98104/unit-1707/home/179158856,NWMLS,1921432,N,Y,47.6067442,-122.3271536
PAST SALE,,Townhouse,1113 20th Ave S Unit C,Seattle,WA,98144,630000,2,2.0,Judkins,1097,600,2023,1,574,,Pending,,,https://www.redfin.com/WA/Seattle/1113-20th-Ave-S-98144/unit-C/home/181910078,NWMLS,2029696,N,Y,47.5926305,-122.3066753
PAST SALE,,Townhouse,4102 SW Morgan St,Seattle,WA,98136,724995,3,2.5,Gatewood,1396,4800,2022,1,519,,Pending,,,https://www.redfin.com/WA/Seattle/4102-SW-Morgan-St-98136/home/183938805,NWMLS,2030001,N,Y,47.5449638,-122.3847226
PAST SALE,,Condo/Co-op,2510 6th Ave #2205,Seattle,WA,98121,575000,1,1.0,Belltown,584,,2021,1,985,541,Pending,,,https://www.redfin.com/WA/Seattle/2510-6th-Ave-98121/unit-2205/home/175152807,NWMLS,1775693,N,Y,47.6180481,-122.3445132
PAST SALE,,Condo/Co-op,2510 6th Ave #1403,Seattle,WA,98121,617000,1,1.0,Denny Triangle,684,,2021,1,902,645,Pending,,,https://www.redfin.com/WA/Seattle/2510-6th-Ave-98121/unit-1403/home/183545494,NWMLS,2023663,N,Y,47.6182832,-122.344644
PAST SALE,,Condo/Co-op,2510 6th Ave #906,Seattle,WA,98121,452000,1,1.0,Denny Triangle,531,,2021,1,851,492,Pending,,,https://www.redfin.com/WA/Seattle/2510-6th-Ave-98121/unit-906/home/179679144,NWMLS,2026382,N,Y,47.6182832,-122.344644
PAST SALE,,Condo/Co-op,800 Columbia St #608,Seattle,WA,98104,674990,1,1.0,First Hill,576,,2023,1,1172,582,Pending,,,https://www.redfin.com/WA/Seattle/800-Columbia-St-98104/unit-608/home/174435463,NWMLS,1928429,N,Y,47.6067442,-122.3271536
PAST SALE,,Townhouse,2638 NW 56th St Unit C,Seattle,WA,98107,800000,3,2.0,Ballard,1381,573,2023,1,579,,Pending,,,https://www.redfin.com/WA/Seattle/2638-NW-56th-St-98107/unit-C/home/183996852,NWMLS,2031133,N,Y,47.6696162,-122.391823
PAST SALE,,Townhouse,2409 S Plum St,Seattle,WA,98144,714990,3,2.5,Seattle,1504,,2023,1,475,205,Pending,,,https://www.redfin.com/WA/Seattle/2409-S-Plum-St-98144/home/184000080,NWMLS,2031242,N,Y,47.5853643,-122.3011308
PAST SALE,,Townhouse,4713 Evanston Ave N,Seattle,WA,98103,699950,2,2.0,Fremont,968,656,2022,1,723,,Pending,,,https://www.redfin.com/WA/Seattle/4713-Evanston-Ave-N-98103/home/181873805,NWMLS,2028738,N,Y,47.6630369,-122.351768
PAST SALE,,Townhouse,4806 Dayton Ave N,Seattle,WA,98103,724950,2,2.0,Fremont,968,656,2023,1,749,,Pending,,,https://www.redfin.com/WA/Seattle/4806-Dayton-Ave-N-98103/home/184120632,NWMLS,2032914,N,Y,47.6638428,-122.3525142
PAST SALE,,Townhouse,14513 1st Ave NE Unit F,Shoreline,WA,98133,724880,3,3.0,Shoreline,1528,,2023,1,474,190,Pending,,,https://www.redfin.com/WA/Shoreline/14513-1st-Ave-NE-98133/unit-F/home/183977844,NWMLS,2030859,N,Y,47.7344995,-122.3291862
PAST SALE,,Townhouse,12309 15th Ave NE Unit A,Seattle,WA,98125,754950,3,2.5,Northgate,1369,2115,2023,1,551,,Pending,,,https://www.redfin.com/WA/Seattle/12309-15th-Ave-NE-98125/unit-A/home/184082452,NWMLS,2031531,N,Y,47.7179254,-122.3131675
PAST SALE,,Condo/Co-op,800 Columbia St #712,Seattle,WA,98104,622000,0,1.0,First Hill,541,,2023,1,1150,546,Pending,,,https://www.redfin.com/WA/Seattle/800-Columbia-St-98104/unit-712/home/179158875,NWMLS,1921471,N,Y,47.6067442,-122.3271536
PAST SALE,July-24-2015,Single Family Residential,3233 15th Ave S,Seattle,WA,98144,899950,3,2.0,N Beacon Hill,2120,5800,1924,1,425,,Pending,,,https://www.redfin.com/WA/Seattle/3233-15th-Ave-S-98144/home/167708,NWMLS,2032458,N,Y,47.5740783,-122.3136823
PAST SALE,,Condo/Co-op,2510 6th Ave #2303,Seattle,WA,98121,730000,1,1.0,Denny Triangle,684,,2021,1,1067,645,Pending,,,https://www.redfin.com/WA/Seattle/2510-6th-Ave-98121/unit-2303/home/184061370,NWMLS,2031833,N,Y,47.6182832,-122.344644
MLS Listing,,Single Family Residential,1535 S Ferdinand St,Seattle,WA,98108,850000,3,2.0,Beacon Hill,1580,7864,1915,1,538,,Active,,,https://www.redfin.com/WA/Seattle/1535-S-Ferdinand-St-98108/home/482622,NWMLS,2033379,N,Y,47.5588083,-122.311899
MLS Listing,,Townhouse,6905 Flora Ave S Unit B,Seattle,WA,98108,579000,2,2.0,Georgetown,1136,3994,2023,1,510,30,Active,February-4-2023 11:00 AM,February-4-2023 02:00 PM,https://www.redfin.com/WA/Seattle/6905-Flora-Ave-S-98108/unit-B/home/184128467,NWMLS,2033294,N,Y,47.5408737,-122.3213387
MLS Listing,,Condo/Co-op,750 N 143rd St #120,Seattle,WA,98133,415000,2,2.0,Bitter Lake,936,,1978,1,443,296,Active,,,https://www.redfin.com/WA/Seattle/750-N-143rd-St-98133/unit-120/home/12305450,NWMLS,2032402,N,Y,47.7328299,-122.3485443
MLS Listing,,Single Family Residential,2519 NE 145th St,Seattle,WA,98155,749950,4,2.0,Olympic Hills,2500,5909,1978,1,300,,Active,,,https://www.redfin.com/WA/Seattle/2519-NE-145th-St-98155/home/114321,NWMLS,2033089,N,Y,47.7335354,-122.3011398
MLS Listing,,Single Family Residential,415 E 40th Street Ct,Tacoma,WA,98404,480000,4,3.0,McKinley,2147,5006,2002,1,224,,Active,,,https://www.redfin.com/WA/Tacoma/415-E-40th-Street-Ct-98404/home/3004952,NWMLS,2033053,N,Y,47.2192396,-122.4257661
MLS Listing,,Single Family Residential,8243 2nd Ave NE,Seattle,WA,98115,729900,2,2.5,Maple Leaf,1093,1060,2023,1,668,,Active,February-4-2023 01:00 PM,February-4-2023 03:00 PM,https://www.redfin.com/WA/Seattle/8243-2nd-Ave-NE-98115/home/184120631,NWMLS,2033271,N,Y,47.689897,-122.3273783
MLS Listing,,Single Family Residential,8241 2nd Ave NE,Seattle,WA,98115,799900,3,2.0,Maple Leaf,2040,3449,1941,1,392,,Active,February-4-2023 01:00 PM,February-4-2023 03:00 PM,https://www.redfin.com/WA/Seattle/8241-2nd-Ave-NE-98115/home/108483,NWMLS,2033221,N,Y,47.6898483,-122.3273756
MLS Listing,,Single Family Residential,5440 Clarkston St,Tacoma,WA,98404,399990,3,1.0,Tacoma,1068,7200,1944,1,375,,Active,February-5-2023 02:00 PM,February-5-2023 04:00 PM,https://www.redfin.com/WA/Tacoma/5440-Clarkston-St-98404/home/2980114,NWMLS,2033342,N,Y,47.2070706,-122.4271545
MLS Listing,,Condo/Co-op,1402 Alki Ave SW #202,Seattle,WA,98116,775980,2,2.0,Alki,1332,,1996,1,583,771,Active,February-5-2023 11:00 AM,February-5-2023 02:00 PM,https://www.redfin.com/WA/Seattle/1402-Alki-Ave-SW-98116/unit-202/home/25084,NWMLS,2033242,N,Y,47.5904824,-122.3924479
MLS Listing,,Single Family Residential,9200 Mary Ave NW,Seattle,WA,98117,749000,2,2.0,Crown Hill,1227,1,2022,1,610,53,Active,February-4-2023 01:00 PM,February-4-2023 03:00 PM,https://www.redfin.com/WA/Seattle/9200-Mary-Ave-NW-98117/home/177862841,NWMLS,2033296,N,Y,47.6960885,-122.3754462
MLS Listing,,Single Family Residential,4327 14th Ave S,Seattle,WA,98108,749995,3,2.0,Beacon Hill,2220,4800,1952,1,338,,Active,February-5-2023 10:00 AM,February-5-2023 01:00 PM,https://www.redfin.com/WA/Seattle/4327-14th-Ave-S-98108/home/170245,NWMLS,2030132,N,Y,47.5645099,-122.3150061
MLS Listing,,Condo/Co-op,9203 B 14th Ave NW,Seattle,WA,98117,879000,3,2.0,Crown Hill,1461,1,2022,1,602,53,Active,February-4-2023 01:00 PM,February-4-2023 03:00 PM,https://www.redfin.com/WA/Seattle/9203-14th-Ave-NW-98117/home/96774,NWMLS,2033259,N,Y,47.6962345,-122.3745849
MLS Listing,,Single Family Residential,3220 S Proctor St,Tacoma,WA,98409,359000,2,1.5,South Tacoma,1088,6000,1911,1,330,,Active,,,https://www.redfin.com/WA/Tacoma/3220-S-Proctor-St-98409/home/2940526,NWMLS,2033269,N,Y,47.2305026,-122.4887616
MLS Listing,,Single Family Residential,4909 43rd Ave S,Seattle,WA,98118,779950,2,2.0,Columbia City,1290,3300,1909,1,605,,Active,February-4-2023 11:00 AM,February-4-2023 01:00 PM,https://www.redfin.com/WA/Seattle/4909-43rd-Ave-S-98118/home/491033,NWMLS,2031412,N,Y,47.5578154,-122.2797942
MLS Listing,,Condo/Co-op,2201 3rd Ave #1102,Seattle,WA,98121,450000,1,1.0,Belltown,591,,1979,1,761,650,Active,,,https://www.redfin.com/WA/Seattle/2201-3rd-Ave-98121/unit-1102/home/73660,NWMLS,2032965,N,Y,47.6139031,-122.3440384
MLS Listing,,Single Family Residential,9420 9th Ave SW,Seattle,WA,98106,719000,3,2.0,Highland Park,1130,7620,1954,1,636,,Active,,,https://www.redfin.com/WA/Seattle/9420-9th-Ave-SW-98106/home/476216,NWMLS,2032854,N,Y,47.5185208,-122.3464318
MLS Listing,,Single Family Residential,2605 Bristol St N,Tacoma,WA,98407,549000,3,1.5,Westgate,1571,9760,1961,1,349,,Active,February-4-2023 01:00 PM,February-4-2023 03:00 PM,https://www.redfin.com/WA/Tacoma/2605-N-Bristol-St-98407/home/2936232,NWMLS,2033107,N,Y,47.2715886,-122.5188506
MLS Listing,,Single Family Residential,1007 90th St E,Tacoma,WA,98445,619990,3,3.5,Tacoma,2664,9250,2023,1,233,,Active,,,https://www.redfin.com/WA/Tacoma/1007-90th-St-E-98445/home/112480155,NWMLS,2032045,N,Y,47.1761416,-122.4166289
MLS Listing,,Condo/Co-op,530 Broadway E #514,Seattle,WA,98102,425000,1,1.0,Capitol Hill,523,523,2007,1,813,384,Active,,,https://www.redfin.com/WA/Seattle/530-Broadway-E-98102/unit-514/home/21617084,NWMLS,2033153,N,Y,47.6236452,-122.320105
PAST SALE,,Condo/Co-op,450 S Main St #808,Seattle,WA,98104,379950,0,1.0,International District,466,,2021,1,815,393,Pending,,,https://www.redfin.com/WA/Seattle/450-S-Main-St-98104/unit-808/home/176358948,NWMLS,2032517,N,Y,47.6002447,-122.3280012
PAST SALE,,Single Family Residential,406 N 127th St,Seattle,WA,98133,585000,3,2.0,Bitter Lake,1312,8100,1928,1,446,,Pending,,,https://www.redfin.com/WA/Seattle/406-N-127th-St-98133/home/98098,NWMLS,2032684,N,Y,47.7216365,-122.3537291
PAST SALE,October-18-2017,Single Family Residential,856 120th St S,Tacoma,WA,98444,335000,2,1.0,Tacoma,664,5000,1941,1,505,,Pending,,,https://www.redfin.com/WA/Tacoma/856-120th-St-S-98444/home/3031852,NWMLS,2031871,N,Y,47.1481807,-122.4455582
PAST SALE,October-4-2005,Single Family Residential,816 Lafayette St S,Tacoma,WA,98444,190000,2,1.0,Parkland,744,5000,1941,1,255,,Pending,,,https://www.redfin.com/WA/Tacoma/816-Lafayette-St-S-98444/home/2947753,NWMLS,2031090,N,Y,47.1546178,-122.4442897
PAST SALE,July-20-2021,Condo/Co-op,108 5th Ave S #514,Seattle,WA,98104,283999,0,1.0,International District,444,,2001,1,640,299,Pending,,,https://www.redfin.com/WA/Seattle/108-5th-Ave-S-98104/unit-514/home/12090802,NWMLS,2026393,N,Y,47.6013297,-122.3272284
PAST SALE,,Condo/Co-op,450 S Main St #616,Seattle,WA,98104,389950,0,1.0,International District,557,,2021,1,700,465,Pending,,,https://www.redfin.com/WA/Seattle/450-S-Main-St-98104/unit-616/home/176358927,NWMLS,2031795,N,Y,47.6002447,-122.3280012
PAST SALE,November-28-2017,Single Family Residential,2540 12th Ave W,Seattle,WA,98119,849950,2,1.5,Queen Anne,2291,4000,1911,1,371,,Pending,,,https://www.redfin.com/WA/Seattle/2540-12th-Ave-W-98119/home/130270,NWMLS,2028565,N,Y,47.6418053,-122.3722332
PAST SALE,,Townhouse,1716 A N 47th St,Seattle,WA,98103,994900,3,2.0,Wallingford,1575,1287,2022,1,632,,Pending,,,https://www.redfin.com/WA/Seattle/1716-A-N-47th-St-98103/home/183926221,NWMLS,1999761,N,Y,47.663086,-122.336847
PAST SALE,,Condo/Co-op,600 Wall St #1005,Seattle,WA,98121,658950,1,1.0,Belltown,596,,2020,1,1106,576,Pending,,,https://www.redfin.com/WA/Seattle/600-Wall-St-98109/unit-1005/home/148369724,NWMLS,1387408,N,Y,47.6183385,-122.344502
PAST SALE,April-23-2010,Condo/Co-op,403 Terry Ave #104,Seattle,WA,98104,185000,0,1.0,First Hill,299,,1907,1,619,175,Pending,,,https://www.redfin.com/WA/Seattle/403-Terry-Ave-98104/unit-104/home/59339,NWMLS,2030070,N,Y,47.6046166,-122.3227009
PAST SALE,,Townhouse,2636 NW 56th St Unit A,Seattle,WA,98107,829999,2,2.0,Ballard,1496,1224,2023,1,555,,Pending,,,https://www.redfin.com/WA/Seattle/2636-NW-56th-St-98107/unit-A/home/184056930,NWMLS,2031463,N,Y,47.6696713,-122.3917518
PAST SALE,,Townhouse,9427 18th Ave SW,Seattle,WA,98106,575000,3,2.0,Westwood,1080,4720,2023,1,532,,Pending,,,https://www.redfin.com/WA/Seattle/9427-18th-Ave-SW-98106/home/183631501,NWMLS,2027143,N,Y,47.5183968,-122.3581788
PAST SALE,,Townhouse,9429 18th Ave SW Unit B,Seattle,WA,98106,575000,3,2.0,Westwood,1080,4720,2023,1,532,,Pending,,,https://www.redfin.com/WA/Seattle/9429-18th-Ave-SW-98106/unit-B/home/183739760,NWMLS,2026815,N,Y,47.5183914,-122.3582676
PAST SALE,April-14-2006,Townhouse,10131 Holman Rd NW,Seattle,WA,98177,648800,3,3.5,Greenwood,1305,1251,2005,1,497,,Pending,February-4-2023 11:00 AM,February-4-2023 01:00 PM,https://www.redfin.com/WA/Seattle/10131-Holman-Rd-NW-98177/home/8188171,NWMLS,2031977,N,Y,47.7031823,-122.3597012
PAST SALE,,Condo/Co-op,450 S Main St #711,Seattle,WA,98104,575950,2,1.0,International District,856,,2021,1,673,710,Pending,,,https://www.redfin.com/WA/Seattle/450-S-Main-St-98104/unit-711/home/176358940,NWMLS,2032608,N,Y,47.6002447,-122.3280012
PAST SALE,,Townhouse,912 N 100th St,Seattle,WA,98133,549950,2,1.5,Seattle,900,1,2022,1,611,57,Pending,,,https://www.redfin.com/WA/Seattle/912-N-100th-St-98133/home/181269279,NWMLS,2030871,N,Y,47.7016481,-122.3467267
PAST SALE,,Condo/Co-op,1033 NE 100th St Unit A,Seattle,WA,98125,664875,1,2.0,Maple Leaf,1100,1,2022,1,604,105,Pending,,,https://www.redfin.com/WA/Seattle/1033-NE-100th-St-98125/unit-A/home/183922371,NWMLS,2029789,N,Y,47.7010623,-122.3163971
PAST SALE,August-31-2009,Single Family Residential,1035 NE 100th St,Seattle,WA,98125,777500,4,2.0,Maple Leaf,1960,1,1939,1,397,105,Pending,,,https://www.redfin.com/WA/Seattle/1035-NE-100th-St-98125/home/109985,NWMLS,2030465,N,Y,47.7010702,-122.3163569
PAST SALE,,Townhouse,1539 Grandview Pl E,Seattle,WA,98112,999950,2,2.0,Capitol Hill,1352,627,2022,1,740,,Pending,,,https://www.redfin.com/WA/Seattle/1539-Grandview-Pl-E-98112/home/184069138,NWMLS,2032026,N,Y,47.6335241,-122.3120661
PAST SALE,April-25-2012,Single Family Residential,6303 37th Ave SW,Seattle,WA,98126,650000,2,1.0,Fairmount,780,6738,1943,1,833,,Pending,,,https://www.redfin.com/WA/Seattle/6303-37th-Ave-SW-98126/home/471690,NWMLS,2025522,N,Y,47.5464033,-122.3794038
PAST SALE,June-13-2017,Townhouse,8431 22nd Ave SW,Seattle,WA,98106,665000,3,2.5,West Seattle,1546,1600,2022,1,430,,Pending,,,https://www.redfin.com/WA/Seattle/8431-22nd-Ave-SW-98106/home/181778770,NWMLS,2027987,N,Y,47.5272813,-122.3621472
PAST SALE,,Single Family Residential,5712 32nd Ave E,Tacoma,WA,98443,624950,3,3.0,Summit,1856,30928,1963,1,337,,Pending,,,https://www.redfin.com/WA/Tacoma/5712-32nd-Ave-E-98443/home/2598729,NWMLS,2028612,N,Y,47.2048181,-122.3867733
PAST SALE,September-21-2012,Single Family Residential,4243 S Mead St,Seattle,WA,98118,649900,2,2.0,Hillman City,1000,3090,1912,1,650,,Pending,,,https://www.redfin.com/WA/Seattle/4243-S-Mead-St-98118/home/173137,NWMLS,2026926,N,Y,47.5502044,-122.2789238
PAST SALE,June-20-2019,Townhouse,1546 17th Ave S #3,Seattle,WA,98144,458000,2,2.5,N Beacon Hill,1144,6000,1999,1,400,300,Pending,,,https://www.redfin.com/WA/Seattle/1546-17th-Ave-S-98144/unit-3/home/22728,NWMLS,2027442,N,Y,47.5886873,-122.3102433
PAST SALE,October-30-2008,Condo/Co-op,2514 57th Ave SW #202,Seattle,WA,98116,425000,1,1.0,Alki,735,,1964,1,578,383,Pending,,,https://www.redfin.com/WA/Seattle/2514-57th-Ave-SW-98116/unit-202/home/12305020,NWMLS,2030605,N,Y,47.5808328,-122.4048638
PAST SALE,,Townhouse,2711 E Yesler Way Unit A,Seattle,WA,98122,649900,2,2.0,Leschi,1109,1,2021,1,586,,Pending,,,https://www.redfin.com/WA/Seattle/2711-E-Yesler-Way-98122/unit-A/home/177302469,NWMLS,1865931,N,Y,47.6014007,-122.2972963
PAST SALE,,Townhouse,922 N 88th St Unit A,Seattle,WA,98103,739950,3,2.5,Green Lake,1361,1454,2023,1,544,,Pending,,,https://www.redfin.com/WA/Seattle/922-N-88th-St-98103/unit-A/home/184061320,NWMLS,2031802,N,Y,47.6929039,-122.3464025
PAST SALE,February-28-2017,Condo/Co-op,9749 26th Ave SW #501,Seattle,WA,98106,550000,4,3.0,White Center,1682,,2002,1,327,699,Pending,February-4-2023 11:00 AM,February-4-2023 02:00 PM,https://www.redfin.com/WA/Seattle/9749-26th-Ave-SW-98106/unit-501/home/18026,NWMLS,2032355,N,Y,47.5157025,-122.3661743
PAST SALE,August-27-2019,Single Family Residential,1729 116th St S,Tacoma,WA,98444,200000,3,2.0,Parkland,1386,10000,1962,1,144,,Pending,,,https://www.redfin.com/WA/Tacoma/1729-116th-St-S-98444/home/2987028,NWMLS,1996934,N,Y,47.1515757,-122.4596764
PAST SALE,,Single Family Residential,7152 44th Ave S,Seattle,WA,98118,830500,3,3.0,Brighton,1731,1683,2022,1,480,,Pending,,,https://www.redfin.com/WA/Seattle/7152-44th-Ave-S-98118/home/182598452,NWMLS,2013152,N,Y,47.5375729,-122.278027
PAST SALE,,Townhouse,13250 65th Ave S Unit D20,Seattle,WA,98178,599800,3,2.5,Bryn Mawr,1750,1658,2021,1,343,180,Pending,,,https://www.redfin.com/WA/Seattle/13250-65th-Ave-S-98178/unit-D20/home/175264621,NWMLS,1785710,N,Y,47.4855317,-122.2531252
PAST SALE,,Townhouse,3930 B6 S Pearl St,Seattle,WA,98118,824900,2,2.0,Columbia City,1394,880,2023,1,592,,Pending,,,https://www.redfin.com/WA/Seattle/3930-B6-S-Pearl-St-98118/home/179609560,NWMLS,1938491,N,Y,47.556347,-122.281837
PAST SALE,November-2-1992,Single Family Residential,11603 62nd Ave S,Seattle,WA,98178,550000,4,2.5,Skyway,2320,6472,1961,1,237,,Pending,,,https://www.redfin.com/WA/Seattle/11603-62nd-Ave-S-98178/home/195634,NWMLS,2030035,N,Y,47.4989976,-122.2566726
PAST SALE,May-10-2017,Condo/Co-op,4420 Dayton Ave N #3,Seattle,WA,98103,495000,1,1.0,Fremont,787,,1909,1,629,400,Pending,,,https://www.redfin.com/WA/Seattle/4420-Dayton-Ave-N-98103/unit-3/home/17320227,NWMLS,2030458,N,Y,47.6608427,-122.3517696
PAST SALE,June-1-2010,Single Family Residential,6303 52nd Ave W,University Place,WA,98467,489950,3,1.0,University Place,1084,10454,1982,1,452,,Pending,,,https://www.redfin.com/WA/University-Place/6303-52nd-Ave-W-98467/home/2472936,NWMLS,2029222,N,Y,47.2000372,-122.5056833
MLS Listing,,Single Family Residential,530 S 60th St,Tacoma,WA,98408,399950,5,1.5,Tacoma,2042,6000,1918,1,196,,Active,February-18-2023 11:00 AM,February-18-2023 04:00 PM,https://www.redfin.com/WA/Tacoma/530-S-60th-St-98408/home/2944296,NWMLS,2032431,N,Y,47.202586,-122.4397349
MLS Listing,,Condo/Co-op,121 Stewart St #708,Seattle,WA,98101,499000,1,1.0,Downtown,579,,2020,1,862,527,Active,,,https://www.redfin.com/WA/Seattle/121-Stewart-St-98101/unit-708/home/175699606,NWMLS,2033176,N,Y,47.6106852,-122.3406126
MLS Listing,,Single Family Residential,5905 16th Ave SW,Seattle,WA,98106,899888,4,3.0,West Seattle,2120,6954,1983,1,424,,Active,February-4-2023 01:00 PM,February-4-2023 03:00 PM,https://www.redfin.com/WA/Seattle/5905-16th-Ave-SW-98106/home/161534,NWMLS,2032790,N,Y,47.5499916,-122.3551197
MLS Listing,,Condo/Co-op,4540 8th Ave NE #2204,Seattle,WA,98105,418000,1,1.0,University District,710,,1974,1,589,617,Active,,,https://www.redfin.com/WA/Seattle/4540-8th-Ave-NE-98105/unit-2204/home/13551,NWMLS,2033078,N,Y,47.662897,-122.318835
MLS Listing,,Condo/Co-op,121 Stewart St #3102,Seattle,WA,98101,879000,1,1.0,Downtown,955,,2020,1,920,861,Active,,,https://www.redfin.com/WA/Seattle/121-Stewart-St-98101/unit-3102/home/175699791,NWMLS,2033169,N,Y,47.6106852,-122.3406126
MLS Listing,,Single Family Residential,2726 30th Ave S,Seattle,WA,98144,980000,5,2.0,Mt Baker,2280,4240,1925,1,430,,Active,February-4-2023 12:00 PM,February-4-2023 02:00 PM,https://www.redfin.com/WA/Seattle/2726-30th-Ave-S-98144/home/170688,NWMLS,2031564,N,Y,47.5788281,-122.2938653
MLS Listing,,Single Family Residential,4212 46th Ave S,Seattle,WA,98118,965000,3,2.0,Lakewood,1720,5400,1940,1,561,,Active,February-4-2023 01:00 PM,February-4-2023 03:00 PM,https://www.redfin.com/WA/Seattle/4212-46th-Ave-S-98118/home/488805,NWMLS,2032911,N,Y,47.5647719,-122.2754482
MLS Listing,,Condo/Co-op,120 14th Ave Unit B-12,Seattle,WA,98122,314900,1,1.0,Capitol Hill,447,,1928,1,704,344,Active,February-5-2023 11:00 AM,February-5-2023 02:00 PM,https://www.redfin.com/WA/Seattle/120-14th-Ave-98122/unit-B-12/home/12537136,NWMLS,2032676,N,Y,47.6024807,-122.3139428
MLS Listing,,Condo/Co-op,5650 24th Ave NW #211,Seattle,WA,98107,599999,2,2.0,Ballard,1013,,2007,1,592,685,Active,February-4-2023 01:00 PM,February-4-2023 03:00 PM,https://www.redfin.com/WA/Seattle/5650-24th-Ave-NW-98107/unit-211/home/12448303,NWMLS,2031087,N,Y,47.6698059,-122.3872012
MLS Listing,,Townhouse,9211 A 14th Ave NW,Seattle,WA,98117,979900,3,3.5,Crown Hill,1717,1087,2023,1,571,1,Active,,,https://www.redfin.com/WA/Seattle/9211-14th-Ave-NW-98117/home/180733531,NWMLS,2032820,N,Y,47.696459,-122.374512
MLS Listing,,Townhouse,9213 B 14th Ave NW,Seattle,WA,98117,879900,3,3.5,Crown Hill,1479,1397,2023,1,595,1,Active,,,https://www.redfin.com/WA/Seattle/9213-14th-Ave-NW-98117/home/180733530,NWMLS,2032844,N,Y,47.696487,-122.374512
MLS Listing,,Single Family Residential,1515 117th St S,Tacoma,WA,98444,364900,2,1.0,Parkland,866,5000,1949,1,421,,Active,February-5-2023 12:00 PM,February-5-2023 02:00 PM,https://www.redfin.com/WA/Tacoma/1515-117th-St-S-98444/home/2987395,NWMLS,2032868,N,Y,47.1508092,-122.4548614
MLS Listing,,Single Family Residential,13536 Burke Ave N,Seattle,WA,98133,725000,3,2.0,Haller Lake,1250,6800,1959,1,580,,Active,February-4-2023 01:00 PM,February-4-2023 03:00 PM,https://www.redfin.com/WA/Seattle/13536-Burke-Ave-N-98133/home/101985,NWMLS,2027394,N,Y,47.7279657,-122.3352147
MLS Listing,,Single Family Residential,3818 36th Ave W,Seattle,WA,98199,850000,1,1.0,Magnolia,500,6000,1910,1,1700,,Active,,,https://www.redfin.com/WA/Seattle/3818-36th-Ave-W-98199/home/127748,NWMLS,2033064,N,Y,47.6545588,-122.4033069
MLS Listing,,Single Family Residential,3827 S Park Ave,Tacoma,WA,98418,399999,2,2.0,Lincoln,727,3132,1910,1,550,,Active,February-4-2023 11:00 AM,February-4-2023 01:00 PM,https://www.redfin.com/WA/Tacoma/3827-S-Park-Ave-98418/home/2962909,NWMLS,2033086,N,Y,47.2220804,-122.4417075
MLS Listing,,Single Family Residential,1623 23rd Ave,Seattle,WA,98122,659000,2,1.5,Madrona,1100,1377,2015,1,599,,Active,,,https://www.redfin.com/WA/Seattle/1623-23rd-Ave-98122/home/25674691,NWMLS,2032052,N,Y,47.6160885,-122.3028278
MLS Listing,,Single Family Residential,4008 S J St,Tacoma,WA,98418,389000,3,1.5,South Tacoma,1522,4280,1910,1,256,,Active,,,https://www.redfin.com/WA/Tacoma/4008-S-J-St-98418/home/2978717,NWMLS,2032826,N,Y,47.2205942,-122.4466837
MLS Listing,,Condo/Co-op,3511 NE 143rd St,Seattle,WA,98125,699888,2,1.5,Cedar Park,1000,,2023,1,700,,Active,February-4-2023 01:00 PM,February-4-2023 03:00 PM,https://www.redfin.com/WA/Seattle/3511-NE-143rd-St-98125/home/184109672,NWMLS,2032962,N,Y,47.731698,-122.2904599
MLS Listing,,Townhouse,1402 E Olive St,Seattle,WA,98122,900000,2,2.5,Capitol Hill,1405,1588,2007,1,641,,Active,February-4-2023 02:30 PM,February-4-2023 04:30 PM,https://www.redfin.com/WA/Seattle/1402-E-Olive-St-98122/home/17090587,NWMLS,2030741,N,Y,47.6166276,-122.3138302
MLS Listing,,Single Family Residential,5703 E K St Lot 2,Tacoma,WA,98404,549000,4,2.5,Tacoma,1743,5000,2023,1,315,,Active,,,https://www.redfin.com/WA/Tacoma/5703-E-K-St-98404/unit-2/home/184108280,NWMLS,2033093,N,Y,47.204752,-122.413851
MLS Listing,,Condo/Co-op,9004 25th Ave SW Unit 202B,Seattle,WA,98106,399000,2,2.0,Westwood,1016,81726,1979,2,393,500,Active,February-5-2023 01:00 PM,February-5-2023 04:00 PM,https://www.redfin.com/WA/Seattle/9004-25th-Ave-SW-98106/unit-202B/home/176035651,NWMLS,2031545,N,Y,47.5225222,-122.3642445
MLS Listing,,Single Family Residential,15015 10th Ave E,Tacoma,WA,98445,395000,3,1.5,Parkland,1096,9600,1968,2,360,,Active,,,https://www.redfin.com/WA/Tacoma/15015-10th-Ave-E-98445/home/2983360,NWMLS,2033054,N,Y,47.1202903,-122.4173746
MLS Listing,,Single Family Residential,4136 Yakima Ave,Tacoma,WA,98418,500000,3,2.5,Lincoln,2296,4810,1908,2,218,,Active,February-4-2023 02:00 PM,February-4-2023 04:00 PM,https://www.redfin.com/WA/Tacoma/4136-Yakima-Ave-98418/home/2978788,NWMLS,2032836,N,Y,47.2186435,-122.4437035
MLS Listing,,Single Family Residential,4207 S Spencer St,Seattle,WA,98118,675000,4,1.0,Hillman City,1500,6180,1909,2,450,,Active,February-4-2023 11:00 AM,February-4-2023 02:00 PM,https://www.redfin.com/WA/Seattle/4207-S-Spencer-St-98118/home/172843,NWMLS,2031996,N,Y,47.5472065,-122.2803248
MLS Listing,,Condo/Co-op,108 5th Ave S #410,Seattle,WA,98104,368000,1,1.0,International District,643,,2001,2,572,522,Active,,,https://www.redfin.com/WA/Seattle/108-5th-Ave-S-98104/unit-410/home/12090696,NWMLS,2033040,N,Y,47.6013297,-122.3272284
MLS Listing,,Single Family Residential,11406 61st Ave S,Seattle,WA,98178,530000,4,2.0,Campbell Hill,1650,5974,1972,2,321,,Active,,,https://www.redfin.com/WA/Seattle/11406-61st-Ave-S-98178/home/196092,NWMLS,2031765,N,Y,47.5008059,-122.2573206
MLS Listing,,Townhouse,9326 Renton Ave S,Seattle,WA,98118,499000,2,2.0,Upper Rainier Beach,1011,6741,2022,2,494,,Active,,,https://www.redfin.com/WA/Seattle/9326-Renton-Ave-S-98118/home/184100649,NWMLS,2032347,N,Y,47.5185019,-122.270922
MLS Listing,,Single Family Residential,9812 8th Ave NE,Seattle,WA,98115,750000,1,1.0,Maple Leaf,1470,8119,1926,2,510,,Active,February-4-2023 12:00 PM,February-4-2023 02:00 PM,https://www.redfin.com/WA/Seattle/9812-8th-Ave-NE-98115/home/109435,NWMLS,2031880,N,Y,47.7007986,-122.3201097
MLS Listing,,Single Family Residential,824 S 72nd St,Tacoma,WA,98408,475000,4,2.0,South Tacoma,1650,6608,1954,2,288,,Active,,,https://www.redfin.com/WA/Tacoma/824-S-72nd-St-98408/home/2941648,NWMLS,2032891,N,Y,47.1917166,-122.4447001
MLS Listing,,Townhouse,4808 Dayton Ave N,Seattle,WA,98103,719950,2,2.0,Fremont,968,656,2023,2,744,,Active,February-4-2023 02:30 PM,February-4-2023 04:30 PM,https://www.redfin.com/WA/Seattle/4808-Dayton-Ave-N-98103/home/184099895,NWMLS,2032874,N,Y,47.663874,-122.3525154
MLS Listing,,Townhouse,5610 14th Ave NW Unit A,Seattle,WA,98107,899950,4,3.0,Ballard,1560,1202,2022,2,577,,Active,February-4-2023 01:00 PM,February-4-2023 04:00 PM,https://www.redfin.com/WA/Seattle/5610-14th-Ave-NW-98107/unit-A/home/494076,NWMLS,2032783,N,Y,47.669855,-122.3732721
MLS Listing,,Single Family Residential,7025 13th Ave SW,Seattle,WA,98106,615000,2,2.0,Highland Park,1140,7020,1942,2,539,,Active,February-5-2023 01:00 PM,February-5-2023 04:00 PM,https://www.redfin.com/WA/Seattle/7025-13th-Ave-SW-98106/home/161697,NWMLS,2032237,N,Y,47.5404003,-122.3517411
MLS Listing,,Single Family Residential,1407 E 30th St,Tacoma,WA,98404,424999,3,2.0,Indian Addition,996,6500,1942,2,427,,Active,February-4-2023 12:00 PM,February-4-2023 02:00 PM,https://www.redfin.com/WA/Tacoma/1407-E-30th-St-98404/home/2844846,NWMLS,2032654,N,Y,47.2366431,-122.4125625
MLS Listing,,Single Family Residential,2711 158th St E,Tacoma,WA,98445,799950,5,3.0,Spanaway Lake,3750,55757,1984,2,213,,Active,February-4-2023 11:00 AM,February-4-2023 02:00 PM,https://www.redfin.com/WA/Tacoma/2711-158th-St-E-98445/home/3042625,NWMLS,2031593,N,Y,47.1129062,-122.3928637
MLS Listing,,Single Family Residential,3221 22nd Ave W,Seattle,WA,98199,825000,2,1.0,Magnolia,1830,3960,1910,2,451,,Active,February-4-2023 12:00 PM,February-4-2023 02:00 PM,https://www.redfin.com/WA/Seattle/3221-22nd-Ave-W-98199/home/123823,NWMLS,2031855,N,Y,47.649194,-122.3850529
MLS Listing,,Single Family Residential,2509 E Union St,Seattle,WA,98122,999950,3,2.0,Central Area,1769,1117,2022,2,565,,Active,February-5-2023 12:00 PM,February-5-2023 02:00 PM,https://www.redfin.com/WA/Seattle/2509-E-Union-St-98122/home/179595627,NWMLS,2032453,N,Y,47.6125334,-122.2996424
MLS Listing,,Single Family Residential,13219 Waller Rd E,Tacoma,WA,98446,397000,2,1.0,Tacoma,1244,72436,1942,2,319,,Active,,,https://www.redfin.com/WA/Tacoma/13219-Waller-Rd-E-98446/home/2567472,NWMLS,2032437,N,Y,47.1360126,-122.388741
MLS Listing,,Townhouse,6528 34th Ave SW,Seattle,WA,98126,550000,3,2.0,West Seattle,1240,1600,1999,2,444,,Active,February-4-2023 11:00 AM,February-4-2023 02:00 PM,https://www.redfin.com/WA/Seattle/6528-34th-Ave-SW-98126/home/473268,NWMLS,2029900,N,Y,47.543701,-122.374668
MLS Listing,,Condo/Co-op,2200 Thorndyke Ave W #202,Seattle,WA,98199,339500,1,1.0,Magnolia,557,,1988,2,610,437,Active,February-4-2023 11:00 AM,February-4-2023 02:00 PM,https://www.redfin.com/WA/Seattle/2200-Thorndyke-Ave-W-98199/unit-202/home/72337,NWMLS,2024203,N,Y,47.6386387,-122.3873376
MLS Listing,,Single Family Residential,6309 S Thompson Ave,Tacoma,WA,98408,420000,3,1.5,South Tacoma,1300,4440,1900,2,323,,Active,,,https://www.redfin.com/WA/Tacoma/6309-S-Thompson-Ave-98408/home/2720513,NWMLS,2032314,N,Y,47.2000611,-122.4442612
New Construction Plan,,Single Family Residential,Plan E1,Seattle,WA,98106,977900,5,2.5,Altamura at Greenbridge,2701,,,,362,,Active,,,https://www.redfin.com/WA/Seattle/Altamura-at-Greenbridge/Plan-E1/home/184119325,NewHomeSource.com,Plan-222507617,N,Y,47.51234,-122.340476
