SALE TYPE,SOLD DATE,PROPERTY TYPE,ADDRESS,CITY,STATE OR PROVINCE,ZIP OR POSTAL CODE,PRICE,BEDS,BATHS,LOCATION,SQUARE FEET,LOT SIZE,YEAR BUILT,DAYS ON MARKET,$/SQUARE FEET,HOA/MONTH,STATUS,NEXT OPEN HOUSE START TIME,NEXT OPEN HOUSE END TIME,URL (SEE https://www.redfin.com/buy-a-home/comparative-market-analysis FOR INFO ON PRICING),SOURCE,MLS#,FAVORITE,INTERESTED,LATITUDE,LONGITUDE
PAST SALE,,Condo/Co-op,800 Columbia St #608,Seattle,WA,98104,674990,1,1.0,First Hill,576,,2023,1,1172,582,Pending,,,https://www.redfin.com/WA/Seattle/800-Columbia-St-98104/unit-608/home/174435463,NWMLS,1928429,N,Y,47.6067442,-122.3271536
PAST SALE,April-5-2005,Single Family Residential,3635 23rd Ave W,Seattle,WA,98199,749950,5,2.0,Magnolia,2980,7000,1906,1,252,,Pending,,,https://www.redfin.com/WA/Seattle/3635-23rd-Ave-W-98199/home/123856,NWMLS,2019943,N,Y,47.6531649,-122.3863225
PAST SALE,,Condo/Co-op,800 Columbia St #908,Seattle,WA,98104,681000,1,1.0,First Hill,607,,2023,1,1122,613,Pending,,,https://www.redfin.com/WA/Seattle/800-Columbia-St-98104/unit-908/home/179158874,NWMLS,1921462,N,Y,47.6067442,-122.3271536
PAST SALE,,Townhouse,2356 N 145th St Unit D,Shoreline,WA,98133,768880,3,2.5,Shoreline,1803,,2023,1,426,190,Pending,,,https://www.redfin.com/WA/Shoreline/2356-N-145th-St-98133/unit-D/home/183801830,NWMLS,2027670,N,Y,47.7342842,-122.3291543
PAST SALE,,Condo/Co-op,800 Columbia St #1501,Seattle,WA,98104,716000,1,1.0,First Hill,589,,2023,1,1216,595,Pending,,,https://www.redfin.com/WA/Seattle/800-Columbia-St-98104/unit-1501/home/179158862,NWMLS,1921458,N,Y,47.6067442,-122.3271536
PAST SALE,,Condo/Co-op,800 Columbia St #1507,Seattle,WA,98104,623000,1,1.0,First Hill,544,,2023,1,1145,550,Pending,,,https://www.redfin.com/WA/Seattle/800-Columbia-St-98104/unit-1507/home/179158865,NWMLS,1921443,N,Y,47.6067442,-122.3271536
PAST SALE,,Condo/Co-op,800 Columbia St #1701,Seattle,WA,98104,726000,1,1.0,First Hill,589,,2023,1,1233,595,Pending,,,https://www.redfin.com/WA/Seattle/800-Columbia-St-98104/unit-1701/home/179158864,NWMLS,1921438,N,Y,47.6067442,-122.3271536
PAST SALE,,Single Family Residential,3008 SW Cloverdale St,Seattle,WA,98126,629000,2,2.5,Westwood,1112,1866,2023,1,566,50,Pending,,,https://www.redfin.com/WA/Seattle/3008-SW-Cloverdale-St-98126/home/183899590,NWMLS,2029654,N,Y,47.5266598,-122.371795
PAST SALE,,Townhouse,6209 9th Ave NE Unit A,Seattle,WA,98115,875000,3,2.5,Roosevelt,1450,1081,2015,1,603,,Pending,,,https://www.redfin.com/WA/Seattle/6209-9th-Ave-NE-98115/unit-A/home/106203758,NWMLS,2028376,N,Y,47.6737236,-122.3189808
PAST SALE,,Condo/Co-op,800 Columbia St #1715,Seattle,WA,98104,628000,0,1.0,First Hill,517,,2023,1,1215,522,Pending,,,https://www.redfin.com/WA/Seattle/800-Columbia-St-98104/unit-1715/home/179158850,NWMLS,1921426,N,Y,47.6067442,-122.3271536
PAST SALE,,Townhouse,966 N Allen Pl,Seattle,WA,98103,720000,2,2.0,Wallingford,1036,856,2022,1,695,,Pending,,,https://www.redfin.com/WA/Seattle/966-N-Allen-Pl-98103/home/181097302,NWMLS,2022938,N,Y,47.6607304,-122.3459124
PAST SALE,,Townhouse,1420 NW 92nd St,Seattle,WA,98117,712900,2,2.0,Crown Hill,1164,1,2022,1,612,,Pending,,,https://www.redfin.com/WA/Seattle/1420-NW-92nd-St-98117/home/178357225,NWMLS,1891553,N,Y,47.6960674,-122.3744563
PAST SALE,,Townhouse,8344 C (NC-3) 13th Ave NW,Seattle,WA,98117,999950,3,2.5,Crown Hill,1807,1114,2022,1,553,,Pending,,,https://www.redfin.com/WA/Seattle/8344-C-NC-3-13th-Ave-NW-98117/home/179847140,NWMLS,1950034,N,Y,47.690053,-122.372381
PAST SALE,,Townhouse,1424 NW 92nd St,Seattle,WA,98117,704900,2,2.0,Crown Hill,1164,1,2022,1,606,,Pending,,,https://www.redfin.com/WA/Seattle/1424-NW-92nd-St-98117/home/177708448,NWMLS,1874231,N,Y,47.6960682,-122.3745252
PAST SALE,,Townhouse,604 #G N 43rd St,Seattle,WA,98103,715000,3,3.0,Fremont,1296,600,2022,1,552,,Pending,,,https://www.redfin.com/WA/Seattle/604-N-43rd-St-98103/unit-G/home/178438098,NWMLS,2025259,N,Y,47.6590572,-122.3507438
PAST SALE,,Condo/Co-op,121 Stewart St #1404,Seattle,WA,98101,739000,1,1.0,Downtown,1003,,2020,1,737,817,Pending,,,https://www.redfin.com/WA/Seattle/121-Stewart-St-98101/unit-1404/home/175699657,NWMLS,2025541,N,Y,47.6106852,-122.3406126
PAST SALE,August-24-2022,Single Family Residential,6808 S Alaska St,Tacoma,WA,98408,595980,4,2.5,Wapato,2281,5000,2023,1,261,50,Pending,,,https://www.redfin.com/WA/Tacoma/6808-S-Alaska-St-98408/home/178471681,NWMLS,2027925,N,Y,47.1953042,-122.458904
PAST SALE,,Condo/Co-op,2510 6th Ave #906,Seattle,WA,98121,452000,1,1.0,Denny Triangle,531,,2021,1,851,492,Pending,,,https://www.redfin.com/WA/Seattle/2510-6th-Ave-98121/unit-906/home/179679144,NWMLS,2026382,N,Y,47.6182832,-122.344644
PAST SALE,,Condo/Co-op,2510 6th Ave #1403,Seattle,WA,98121,617000,1,1.0,Denny Triangle,684,,2021,1,902,645,Pending,,,https://www.redfin.com/WA/Seattle/2510-6th-Ave-98121/unit-1403/home/183545494,NWMLS,2023663,N,Y,47.6182832,-122.344644
PAST SALE,,Single Family Residential,3004 SW Cloverdale St,Seattle,WA,98126,599000,2,2.5,Westwood,1116,1748,2023,1,537,50,Pending,,,https://www.redfin.com/WA/Seattle/3004-SW-Cloverdale-St-98126/home/183872460,NWMLS,2029581,N,Y,47.5266613,-122.3715527
PAST SALE,,Condo/Co-op,2510 6th Ave #2205,Seattle,WA,98121,575000,1,1.0,Belltown,584,,2021,1,985,541,Pending,,,https://www.redfin.com/WA/Seattle/2510-6th-Ave-98121/unit-2205/home/175152807,NWMLS,1775693,N,Y,47.6180481,-122.3445132
PAST SALE,,Townhouse,6500 S 133rd St Unit A4,Seattle,WA,98178,589900,3,2.5,Bryn Mawr,1750,846,2021,1,337,180,Pending,,,https://www.redfin.com/WA/Seattle/6500-S-133rd-St-98178/unit-A4/home/174490854,NWMLS,1733781,N,Y,47.4840644,-122.252426
PAST SALE,,Condo/Co-op,800 Columbia St #1506,Seattle,WA,98104,669000,1,1.0,First Hill,601,,2023,1,1113,607,Pending,,,https://www.redfin.com/WA/Seattle/800-Columbia-St-98104/unit-1506/home/179158863,NWMLS,1921447,N,Y,47.6067442,-122.3271536
PAST SALE,,Condo/Co-op,800 Columbia St #712,Seattle,WA,98104,622000,0,1.0,First Hill,541,,2023,1,1150,546,Pending,,,https://www.redfin.com/WA/Seattle/800-Columbia-St-98104/unit-712/home/179158875,NWMLS,1921471,N,Y,47.6067442,-122.3271536
PAST SALE,,Townhouse,9247 20th Ave SW Unit A,Seattle,WA,98106,799999,4,3.5,Highland Park,2160,1750,2023,1,370,20,Pending,,,https://www.redfin.com/WA/Seattle/9247-20th-Ave-SW-98106/unit-A/home/183739519,NWMLS,2026715,N,Y,47.5195889,-122.3594558
PAST SALE,,Condo/Co-op,800 Columbia St #1707,Seattle,WA,98104,633000,1,1.0,First Hill,544,,2023,1,1164,550,Pending,,,https://www.redfin.com/WA/Seattle/800-Columbia-St-98104/unit-1707/home/179158856,NWMLS,1921432,N,Y,47.6067442,-122.3271536
PAST SALE,,Townhouse,4713 Evanston Ave N,Seattle,WA,98103,699950,2,2.0,Fremont,968,656,2022,1,723,,Pending,,,https://www.redfin.com/WA/Seattle/4713-Evanston-Ave-N-98103/home/181873805,NWMLS,2028738,N,Y,47.6630369,-122.351768
PAST SALE,,Townhouse,1113 20th Ave S Unit C,Seattle,WA,98144,630000,2,2.0,Judkins,1025,600,2023,1,615,,Pending,,,https://www.redfin.com/WA/Seattle/1113-20th-Ave-S-98144/unit-C/home/181910078,NWMLS,2029696,N,Y,47.5926458,-122.3065003
PAST SALE,,Condo/Co-op,2510 6th Ave #1810,Seattle,WA,98121,865000,1,1.0,Denny Triangle,985,,2021,1,878,930,Pending,,,https://www.redfin.com/WA/Seattle/2510-6th-Ave-98121/unit-1810/home/179586217,NWMLS,2028054,N,Y,47.6182832,-122.344644
PAST SALE,,Condo/Co-op,800 Columbia St #1107,Seattle,WA,98104,605900,1,1.0,Seattle,544,,2023,1,1114,550,Pending,,,https://www.redfin.com/WA/Seattle/800-Columbia-St-98104/unit-1107/home/183044486,NWMLS,2019393,N,Y,47.6067442,-122.3271536
PAST SALE,,Condo/Co-op,800 Columbia St #906,Seattle,WA,98104,649000,1,1.0,First Hill,601,,2023,1,1080,607,Pending,,,https://www.redfin.com/WA/Seattle/800-Columbia-St-98104/unit-906/home/179158876,NWMLS,1921467,N,Y,47.6067442,-122.3271536
PAST SALE,January-31-2005,Townhouse,10424 8th Ave NW,Seattle,WA,98177,819000,3,3.0,North Beach,1424,1531,2022,1,575,,Pending,,,https://www.redfin.com/WA/Seattle/10424-8th-Ave-Nw-98177/home/97000,NWMLS,2009072,N,Y,47.7047204,-122.3658805
PAST SALE,June-15-2021,Townhouse,911 A NE 70th St,Seattle,WA,98115,699950,2,2.5,Roosevelt,1110,695,2022,1,631,,Pending,,,https://www.redfin.com/WA/Seattle/911-NE-70th-St-98115/home/309043,NWMLS,2009388,N,Y,47.6792901,-122.3182638
PAST SALE,,Townhouse,10429 H Alderbrook Pl NW,Seattle,WA,98177,599950,2,2.0,Ballard,1098,1366,2002,1,546,,Pending,,,https://www.redfin.com/WA/Seattle/10429-Alderbrook-Pl-NW-98177/home/178441549,NWMLS,2026278,N,Y,47.7043748,-122.365109
PAST SALE,,Townhouse,8338 (NA-4) 13th Ave NW,Seattle,WA,98117,919900,3,2.0,Crown Hill,1652,500,2022,1,557,,Pending,,,https://www.redfin.com/WA/Seattle/8338-NA-4-13th-Ave-NW-98117/home/178300330,NWMLS,1875846,N,Y,47.689916,-122.372557
PAST SALE,,Condo/Co-op,800 Columbia St #915,Seattle,WA,98104,598000,0,1.0,First Hill,539,,2023,1,1109,522,Pending,,,https://www.redfin.com/WA/Seattle/800-Columbia-St-98104/unit-915/home/179158881,NWMLS,1921461,N,Y,47.6067442,-122.3271536
PAST SALE,,Townhouse,4711 Evanston Ave N,Seattle,WA,98103,689000,2,2.0,Fremont,968,656,2022,1,712,,Pending,,,https://www.redfin.com/WA/Seattle/4711-Evanston-Ave-N-98103/home/183381577,NWMLS,2022917,N,Y,47.663168,-122.3516701
PAST SALE,August-31-2020,Single Family Residential,4306 A Woodlawn Ave N,Seattle,WA,98103,849000,3,2.0,Wallingford,1324,779,2022,1,641,,Pending,,,https://www.redfin.com/WA/Seattle/4306-Woodlawn-Ave-N-98103/home/117901,NWMLS,2025849,N,Y,47.6594145,-122.3382909
MLS Listing,,Condo/Co-op,1033 NE 100th St Unit A,Seattle,WA,98125,664875,1,2.0,Maple Leaf,1100,1,2022,1,604,105,Active,,,https://www.redfin.com/WA/Seattle/1033-NE-100th-St-98125/unit-A/home/183922371,NWMLS,2029789,N,Y,47.7010623,-122.3163971
MLS Listing,,Single Family Residential,1338 S Dawson St,Seattle,WA,98108,450000,4,2.5,Beacon Hill,4040,6760,1926,1,111,,Active,,,https://www.redfin.com/WA/Seattle/1338-S-Dawson-St-98108/home/481641,NWMLS,2029500,N,Y,47.5559662,-122.3143118
MLS Listing,,Single Family Residential,2222 145th Street Ct E,Tacoma,WA,98445,497500,2,2.0,Brookdale,1723,4356,2007,1,289,155,Active,,,https://www.redfin.com/WA/Tacoma/2222-145th-St-E-98445/home/12245721,NWMLS,2027718,N,Y,47.1250108,-122.3992455
MLS Listing,,Townhouse,4507 Woodland Park Ave N Unit A,Seattle,WA,98103,769950,2,2.5,Wallingford,1310,1140,2008,1,588,,Active,January-29-2023 01:00 PM,January-29-2023 03:00 PM,https://www.redfin.com/WA/Seattle/4507-Woodland-Park-Ave-N-98103/unit-A/home/17381821,NWMLS,2029677,N,Y,47.6616968,-122.3448861
MLS Listing,,Condo/Co-op,323 Queen Anne Ave N #511,Seattle,WA,98109,475000,1,1.0,Queen Anne,684,21600,1999,1,694,587,Active,,,https://www.redfin.com/WA/Seattle/323-Queen-Anne-Ave-N-98109/unit-511/home/2115973,NWMLS,2029237,N,Y,47.6217302,-122.3570297
MLS Listing,,Townhouse,4408 Latona Ave NE,Seattle,WA,98105,825000,2,2.5,Wallingford,1114,4080,2023,1,741,42,Active,,,https://www.redfin.com/WA/Seattle/4408-Latona-Ave-NE-98105/home/117293,NWMLS,2029666,N,Y,47.6605172,-122.3248298
PAST SALE,December-19-2022,Townhouse,3410 A 23rd Ave W,Seattle,WA,98199,799950,2,2.0,Magnolia,1395,1102,2022,1,573,,Pending,,,https://www.redfin.com/WA/Seattle/3410-23rd-Ave-W-98199/home/179736059,NWMLS,1967864,N,Y,47.6507636,-122.3856057
PAST SALE,June-1-2010,Single Family Residential,6303 52nd Ave W,University Place,WA,98467,489950,3,1.0,University Place,1084,10454,1982,1,452,,Pending,,,https://www.redfin.com/WA/University-Place/6303-52nd-Ave-W-98467/home/2472936,NWMLS,2029222,N,Y,47.2000372,-122.5056833
PAST SALE,July-13-2017,Single Family Residential,14062 23rd Pl NE,Seattle,WA,98125,735000,3,2.0,Olympic Hills,1460,6715,1944,1,503,,Pending,,,https://www.redfin.com/WA/Seattle/14062-23rd-Pl-NE-98125/home/115952,NWMLS,2025489,N,Y,47.7315159,-122.304149
PAST SALE,April-25-2012,Single Family Residential,6303 37th Ave SW,Seattle,WA,98126,650000,2,1.0,Fairmount,780,6738,1943,1,833,,Pending,,,https://www.redfin.com/WA/Seattle/6303-37th-Ave-SW-98126/home/471690,NWMLS,2025522,N,Y,47.5464033,-122.3794038
PAST SALE,,Townhouse,2711 E Yesler Way Unit A,Seattle,WA,98122,649900,2,2.0,Leschi,1109,1,2021,1,586,,Pending,,,https://www.redfin.com/WA/Seattle/2711-E-Yesler-Way-98122/unit-A/home/177302469,NWMLS,1865931,N,Y,47.6014007,-122.2972963
PAST SALE,July-20-2021,Condo/Co-op,108 5th Ave S #514,Seattle,WA,98104,283999,0,1.0,International District,444,,2001,1,640,299,Pending,,,https://www.redfin.com/WA/Seattle/108-5th-Ave-S-98104/unit-514/home/12090802,NWMLS,2026393,N,Y,47.6013297,-122.3272284
PAST SALE,June-20-2019,Townhouse,1546 17th Ave S #3,Seattle,WA,98144,458000,2,2.5,N Beacon Hill,1144,6000,1999,1,400,300,Pending,,,https://www.redfin.com/WA/Seattle/1546-17th-Ave-S-98144/unit-3/home/22728,NWMLS,2027442,N,Y,47.5886873,-122.3102433
PAST SALE,,Townhouse,13250 65th Ave S Unit D20,Seattle,WA,98178,599800,3,2.5,Bryn Mawr,1750,1658,2021,1,343,180,Pending,,,https://www.redfin.com/WA/Seattle/13250-65th-Ave-S-98178/unit-D20/home/175264621,NWMLS,1785710,N,Y,47.4855317,-122.2531252
PAST SALE,November-28-2017,Single Family Residential,2540 12th Ave W,Seattle,WA,98119,849950,2,1.5,Queen Anne,2291,4000,1911,1,371,,Pending,,,https://www.redfin.com/WA/Seattle/2540-12th-Ave-W-98119/home/130270,NWMLS,2028565,N,Y,47.6418053,-122.3722332
PAST SALE,September-21-2012,Single Family Residential,4243 S Mead St,Seattle,WA,98118,649900,2,2.0,Hillman City,1000,3090,1912,1,650,,Pending,,,https://www.redfin.com/WA/Seattle/4243-S-Mead-St-98118/home/173137,NWMLS,2026926,N,Y,47.5502044,-122.2789238
PAST SALE,,Single Family Residential,7152 44th Ave S,Seattle,WA,98118,830500,3,3.0,Brighton,1731,1683,2022,1,480,,Pending,,,https://www.redfin.com/WA/Seattle/7152-44th-Ave-S-98118/home/182598452,NWMLS,2013152,N,Y,47.5375729,-122.278027
PAST SALE,,Condo/Co-op,600 Wall St #1005,Seattle,WA,98121,658950,1,1.0,Belltown,596,,2020,1,1106,576,Pending,,,https://www.redfin.com/WA/Seattle/600-Wall-St-98109/unit-1005/home/148369724,NWMLS,1387408,N,Y,47.6183385,-122.344502
PAST SALE,June-13-2017,Townhouse,8431 22nd Ave SW,Seattle,WA,98106,665000,3,2.5,West Seattle,1546,1600,2022,1,430,,Pending,,,https://www.redfin.com/WA/Seattle/8431-22nd-Ave-SW-98106/home/181778770,NWMLS,2027987,N,Y,47.5272813,-122.3621472
PAST SALE,,Single Family Residential,8620 31st Ave SW Unit A,Seattle,WA,98126,785000,3,2.0,Westwood,1722,5383,1952,1,456,2,Pending,,,https://www.redfin.com/WA/Seattle/8620-31st-Ave-SW-98126/unit-A/home/183179738,NWMLS,2019269,N,Y,47.5258045,-122.3722707
PAST SALE,August-27-2019,Single Family Residential,1729 116th St S,Tacoma,WA,98444,200000,3,2.0,Parkland,1386,10000,1962,1,144,,Pending,,,https://www.redfin.com/WA/Tacoma/1729-116th-St-S-98444/home/2987028,NWMLS,1996934,N,Y,47.1515757,-122.4596764
PAST SALE,,Townhouse,3930 B6 S Pearl St,Seattle,WA,98118,824900,2,2.0,Columbia City,1394,880,2023,1,592,,Pending,,,https://www.redfin.com/WA/Seattle/3930-B6-S-Pearl-St-98118/home/179609560,NWMLS,1938491,N,Y,47.556347,-122.281837
PAST SALE,March-30-2007,Single Family Residential,7356 27th Ave NW,Seattle,WA,98117,980000,3,3.0,Sunset Hill,1970,4212,1928,1,497,,Pending,,,https://www.redfin.com/WA/Seattle/7356-27th-Ave-NW-98117/home/165906,NWMLS,2026308,N,Y,47.6829993,-122.390588
PAST SALE,,Townhouse,9429 18th Ave SW Unit B,Seattle,WA,98106,575000,3,2.0,Westwood,1080,4720,2023,1,532,,Pending,,,https://www.redfin.com/WA/Seattle/9429-18th-Ave-SW-98106/unit-B/home/183739760,NWMLS,2026815,N,Y,47.5183914,-122.3582676
PAST SALE,,Townhouse,9427 18th Ave SW,Seattle,WA,98106,575000,3,2.0,Westwood,1080,4720,2023,1,532,,Pending,,,https://www.redfin.com/WA/Seattle/9427-18th-Ave-SW-98106/home/183631501,NWMLS,2027143,N,Y,47.5183968,-122.3581788
PAST SALE,August-23-2000,Single Family Residential,3018 S Proctor St,Tacoma,WA,98409,269000,3,1.0,Tacoma,908,5000,1926,1,296,,Pending,,,https://www.redfin.com/WA/Tacoma/3018-S-Proctor-St-98409/home/2940483,NWMLS,2026621,N,Y,47.232486,-122.488808
MLS Listing,,Single Family Residential,9667 54th Ave S,Seattle,WA,98118,530000,2,1.0,Upper Rainier Beach,1130,5070,1907,2,469,,Active,,,https://www.redfin.com/WA/Seattle/9667-54th-Ave-S-98118/home/176103,NWMLS,2029157,N,Y,47.5149942,-122.2656931
MLS Listing,,Single Family Residential,8457 30th Ave SW,Seattle,WA,98126,975000,3,2.5,Westwood,2056,3604,2023,2,474,50,Active,,,https://www.redfin.com/WA/Seattle/8457-30th-Ave-SW-98126/home/473398,NWMLS,2029578,N,Y,47.526679,-122.3715176
MLS Listing,,Townhouse,1113 20th Ave S Unit B,Seattle,WA,98144,599950,2,2.0,Judkins,1025,600,2023,2,585,,Active,January-28-2023 11:00 AM,January-28-2023 02:00 PM,https://www.redfin.com/WA/Seattle/1113-20th-Ave-S-98144/unit-B/home/183891947,NWMLS,2028492,N,Y,47.5926305,-122.3066753
New Construction Plan,,Townhouse,Unit 18.02,Seattle,WA,98133,764990,3,3.5,357 Degrees,1729,,,,442,,Active,,,https://www.redfin.com/WA/Seattle/357-Degrees/Unit-18-02/home/178118834,NewHomeSource.com,Plan-221934274,N,Y,47.7261945,-122.3563876
