SALE TYPE,SOLD DATE,PROPERTY TYPE,ADDRESS,CITY,STATE OR PROVINCE,ZIP OR POSTAL CODE,PRICE,BEDS,BATHS,LOCATION,SQUARE FEET,LOT SIZE,YEAR BUILT,DAYS ON MARKET,$/SQUARE FEET,HOA/MONTH,STATUS,NEXT OPEN HOUSE START TIME,NEXT OPEN HOUSE END TIME,URL (SEE https://www.redfin.com/buy-a-home/comparative-market-analysis FOR INFO ON PRICING),SOURCE,MLS#,FAVORITE,INTERESTED,LATITUDE,LONGITUDE
MLS Listing,,Single Family Residential,5022 80th St E,Tacoma,WA,98443,529990,3,2.0,Summit,1768,39204,1955,1,300,,Active,,,https://www.redfin.com/WA/Tacoma/5022-80th-St-E-98443/home/2627721,NWMLS,2028348,N,Y,47.1841675,-122.3615401
MLS Listing,,Single Family Residential,145 99th St Ct E,Tacoma,WA,98445,350000,2,2.0,Tacoma,1060,3011,1998,1,330,41,Active,,,https://www.redfin.com/WA/Tacoma/145-99th-St-Ct-E-98445/home/2868844,NWMLS,2027097,N,Y,47.1669596,-122.4294067
MLS Listing,,Single Family Residential,1520 S 94th St,Tacoma,WA,98444,460000,3,2.5,Tacoma,1720,5925,1996,1,267,,Active,January-21-2023 11:00 AM,January-21-2023 01:00 PM,https://www.redfin.com/WA/Tacoma/1520-S-94th-St-98444/home/2868283,NWMLS,2027354,N,Y,47.1717974,-122.4548329
PAST SALE,,Condo/Co-op,800 Columbia St #906,Seattle,WA,98104,649000,1,1.0,First Hill,601,,2023,1,1080,607,Pending,,,https://www.redfin.com/WA/Seattle/800-Columbia-St-98104/unit-906/home/179158876,NWMLS,1921467,N,Y,47.6067442,-122.3271536
PAST SALE,August-31-2020,Single Family Residential,4306 A Woodlawn Ave N,Seattle,WA,98103,849000,3,2.0,Wallingford,1324,779,2022,1,641,,Pending,,,https://www.redfin.com/WA/Seattle/4306-Woodlawn-Ave-N-98103/home/117901,NWMLS,2025849,N,Y,47.6594145,-122.3382909
PAST SALE,January-31-2005,Townhouse,10424 8th Ave NW,Seattle,WA,98177,819000,3,3.0,North Beach,1424,1531,2022,1,575,,Pending,,,https://www.redfin.com/WA/Seattle/10424-8th-Ave-NW-98177/home/97000,NWMLS,2009072,N,Y,47.7047204,-122.3658808
PAST SALE,,Townhouse,4711 Evanston Ave N,Seattle,WA,98103,689000,2,2.0,Fremont,968,656,2022,1,712,,Pending,,,https://www.redfin.com/WA/Seattle/4711-Evanston-Ave-N-98103/home/183381577,NWMLS,2022917,N,Y,47.663168,-122.3516701
PAST SALE,,Condo/Co-op,800 Columbia St #712,Seattle,WA,98104,622000,0,1.0,First Hill,541,,2023,1,1150,546,Pending,,,https://www.redfin.com/WA/Seattle/800-Columbia-St-98104/unit-712/home/179158875,NWMLS,1921471,N,Y,47.6067442,-122.3271536
PAST SALE,,Condo/Co-op,121 Stewart St #1404,Seattle,WA,98101,739000,1,1.0,Downtown,1003,,2020,1,737,817,Pending,,,https://www.redfin.com/WA/Seattle/121-Stewart-St-98101/unit-1404/home/175699657,NWMLS,2025541,N,Y,47.6106852,-122.3406126
PAST SALE,,Condo/Co-op,2510 6th Ave #1810,Seattle,WA,98121,865000,1,1.0,Denny Triangle,985,,2021,1,878,930,Pending,,,https://www.redfin.com/WA/Seattle/2510-6th-Ave-98121/unit-1810/home/179586217,NWMLS,2028054,N,Y,47.6182832,-122.344644
PAST SALE,,Condo/Co-op,800 Columbia St #1107,Seattle,WA,98104,605900,1,1.0,Seattle,544,,2023,1,1114,550,Pending,,,https://www.redfin.com/WA/Seattle/800-Columbia-St-98104/unit-1107/home/183044486,NWMLS,2019393,N,Y,47.6067442,-122.3271536
PAST SALE,,Townhouse,604 #G N 43rd St,Seattle,WA,98103,715000,3,3.0,Fremont,1296,600,2022,1,552,,Pending,,,https://www.redfin.com/WA/Seattle/604-N-43rd-St-98103/unit-G/home/178438098,NWMLS,2025259,N,Y,47.6590572,-122.3507438
PAST SALE,,Townhouse,10429 H Alderbrook Pl NW,Seattle,WA,98177,599950,2,2.0,Ballard,1098,1366,2002,1,546,,Pending,,,https://www.redfin.com/WA/Seattle/10429-Alderbrook-Pl-NW-98177/home/178441549,NWMLS,2026278,N,Y,47.7043748,-122.365109
PAST SALE,,Condo/Co-op,2510 6th Ave #2205,Seattle,WA,98121,575000,1,1.0,Belltown,584,,2021,1,985,541,Pending,,,https://www.redfin.com/WA/Seattle/2510-6th-Ave-98121/unit-2205/home/175152807,NWMLS,1775693,N,Y,47.6180481,-122.3445132
PAST SALE,,Condo/Co-op,2510 6th Ave #1403,Seattle,WA,98121,617000,1,1.0,Denny Triangle,684,,2021,1,902,645,Pending,,,https://www.redfin.com/WA/Seattle/2510-6th-Ave-98121/unit-1403/home/183545494,NWMLS,2023663,N,Y,47.6182832,-122.344644
PAST SALE,,Condo/Co-op,2510 6th Ave #906,Seattle,WA,98121,452000,1,1.0,Denny Triangle,531,,2021,1,851,492,Pending,,,https://www.redfin.com/WA/Seattle/2510-6th-Ave-98121/unit-906/home/179679144,NWMLS,2026382,N,Y,47.6182832,-122.344644
PAST SALE,June-15-2021,Townhouse,911 A NE 70th St,Seattle,WA,98115,699950,2,2.5,Roosevelt,1110,695,2022,1,631,,Pending,,,https://www.redfin.com/WA/Seattle/911-NE-70th-St-98115/home/309043,NWMLS,2009388,N,Y,47.6792901,-122.3182638
PAST SALE,,Townhouse,1420 NW 92nd St,Seattle,WA,98117,712900,2,2.0,Crown Hill,1164,1,2022,1,612,,Pending,,,https://www.redfin.com/WA/Seattle/1420-NW-92nd-St-98117/home/178357225,NWMLS,1891553,N,Y,47.6960674,-122.3744563
PAST SALE,,Townhouse,8344 C (NC-3) 13th Ave NW,Seattle,WA,98117,999950,3,2.5,Crown Hill,1807,1114,2022,1,553,,Pending,,,https://www.redfin.com/WA/Seattle/8344-C-NC-3-13th-Ave-NW-98117/home/179847140,NWMLS,1950034,N,Y,47.690053,-122.372381
PAST SALE,,Townhouse,1424 NW 92nd St,Seattle,WA,98117,704900,2,2.0,Crown Hill,1164,1,2022,1,606,,Pending,,,https://www.redfin.com/WA/Seattle/1424-NW-92nd-St-98117/home/177708448,NWMLS,1874231,N,Y,47.6960682,-122.3745252
PAST SALE,August-24-2022,Single Family Residential,6808 S Alaska St,Tacoma,WA,98408,595980,4,2.5,Wapato,2281,5000,2023,1,261,50,Pending,,,https://www.redfin.com/WA/Tacoma/6808-S-Alaska-St-98408/home/178471681,NWMLS,2027925,N,Y,47.1953042,-122.458904
PAST SALE,,Condo/Co-op,800 Columbia St #1715,Seattle,WA,98104,628000,0,1.0,First Hill,517,,2023,1,1215,522,Pending,,,https://www.redfin.com/WA/Seattle/800-Columbia-St-98104/unit-1715/home/179158850,NWMLS,1921426,N,Y,47.6067442,-122.3271536
PAST SALE,,Condo/Co-op,800 Columbia St #1701,Seattle,WA,98104,726000,1,1.0,First Hill,589,,2023,1,1233,595,Pending,,,https://www.redfin.com/WA/Seattle/800-Columbia-St-98104/unit-1701/home/179158864,NWMLS,1921438,N,Y,47.6067442,-122.3271536
PAST SALE,,Condo/Co-op,800 Columbia St #1507,Seattle,WA,98104,623000,1,1.0,First Hill,544,,2023,1,1145,550,Pending,,,https://www.redfin.com/WA/Seattle/800-Columbia-St-98104/unit-1507/home/179158865,NWMLS,1921443,N,Y,47.6067442,-122.3271536
PAST SALE,,Condo/Co-op,800 Columbia St #1501,Seattle,WA,98104,716000,1,1.0,First Hill,589,,2023,1,1216,595,Pending,,,https://www.redfin.com/WA/Seattle/800-Columbia-St-98104/unit-1501/home/179158862,NWMLS,1921458,N,Y,47.6067442,-122.3271536
PAST SALE,,Condo/Co-op,800 Columbia St #908,Seattle,WA,98104,681000,1,1.0,First Hill,607,,2023,1,1122,613,Pending,,,https://www.redfin.com/WA/Seattle/800-Columbia-St-98104/unit-908/home/179158874,NWMLS,1921462,N,Y,47.6067442,-122.3271536
PAST SALE,April-5-2005,Single Family Residential,3635 23rd Ave W,Seattle,WA,98199,749950,5,2.0,Magnolia,2980,7000,1906,1,252,,Pending,,,https://www.redfin.com/WA/Seattle/3635-23rd-Ave-W-98199/home/123856,NWMLS,2019943,N,Y,47.6531649,-122.3863225
PAST SALE,,Condo/Co-op,800 Columbia St #608,Seattle,WA,98104,674990,1,1.0,First Hill,576,,2023,1,1172,582,Pending,,,https://www.redfin.com/WA/Seattle/800-Columbia-St-98104/unit-608/home/174435463,NWMLS,1928429,N,Y,47.6067442,-122.3271536
PAST SALE,,Townhouse,2356 N 145th St Unit D,Shoreline,WA,98133,768880,3,2.5,Shoreline,1803,,2023,1,426,190,Pending,,,https://www.redfin.com/WA/Shoreline/2356-N-145th-St-98133/unit-D/home/183801830,NWMLS,2027670,N,Y,47.7342842,-122.3291543
PAST SALE,,Townhouse,966 N Allen Pl,Seattle,WA,98103,720000,2,2.0,Wallingford,1036,856,2022,1,695,,Pending,,,https://www.redfin.com/WA/Seattle/966-N-Allen-Pl-98103/home/181097302,NWMLS,2022938,N,Y,47.6607304,-122.3459124
PAST SALE,,Condo/Co-op,800 Columbia St #1707,Seattle,WA,98104,633000,1,1.0,First Hill,544,,2023,1,1164,550,Pending,,,https://www.redfin.com/WA/Seattle/800-Columbia-St-98104/unit-1707/home/179158856,NWMLS,1921432,N,Y,47.6067442,-122.3271536
PAST SALE,,Condo/Co-op,800 Columbia St #1506,Seattle,WA,98104,669000,1,1.0,First Hill,601,,2023,1,1113,607,Pending,,,https://www.redfin.com/WA/Seattle/800-Columbia-St-98104/unit-1506/home/179158863,NWMLS,1921447,N,Y,47.6067442,-122.3271536
PAST SALE,,Condo/Co-op,800 Columbia St #915,Seattle,WA,98104,598000,0,1.0,First Hill,539,,2023,1,1109,522,Pending,,,https://www.redfin.com/WA/Seattle/800-Columbia-St-98104/unit-915/home/179158881,NWMLS,1921461,N,Y,47.6067442,-122.3271536
PAST SALE,,Single Family Residential,9007 S Sheridan Ave,Tacoma,WA,98444,449900,4,3.0,South Tacoma,1888,6081,2001,1,238,,Pending,,,https://www.redfin.com/WA/Tacoma/9007-S-Sheridan-Ave-98444/home/3002361,NWMLS,2024319,N,Y,47.1752532,-122.4522418
PAST SALE,,Townhouse,9247 20th Ave SW Unit A,Seattle,WA,98106,799999,4,3.5,Highland Park,2160,1750,2023,1,370,20,Pending,,,https://www.redfin.com/WA/Seattle/9247-20th-Ave-SW-98106/unit-A/home/183739519,NWMLS,2026715,N,Y,47.5195889,-122.3594558
PAST SALE,,Townhouse,8338 (NA-4) 13th Ave NW,Seattle,WA,98117,919900,3,2.0,Crown Hill,1652,500,2022,1,557,,Pending,,,https://www.redfin.com/WA/Seattle/8338-NA-4-13th-Ave-NW-98117/home/178300330,NWMLS,1875846,N,Y,47.689916,-122.372557
PAST SALE,,Townhouse,6500 S 133rd St Unit A4,Seattle,WA,98178,589900,3,2.5,Bryn Mawr,1750,846,2021,1,337,180,Pending,,,https://www.redfin.com/WA/Seattle/6500-S-133rd-St-98178/unit-A4/home/174490854,NWMLS,1733781,N,Y,47.4840644,-122.252426
MLS Listing,,Condo/Co-op,76 Cedar St #1206,Seattle,WA,98121,499950,1,1.0,Belltown,725,,2007,1,690,655,Active,,,https://www.redfin.com/WA/Seattle/76-Cedar-St-98121/unit-1206/home/12537367,NWMLS,2028322,N,Y,47.6154195,-122.3515839
MLS Listing,,Single Family Residential,654 N Howard St,Tacoma,WA,98406,519000,3,2.0,Tacoma,2030,7150,1946,1,256,,Active,January-20-2023 03:00 AM,January-20-2023 06:00 PM,https://www.redfin.com/WA/Tacoma/654-N-Howard-St-98406/home/2834879,NWMLS,2025506,N,Y,47.2576518,-122.5302554
MLS Listing,,Single Family Residential,2216 NE 75th St,Seattle,WA,98115,769950,2,2.0,Ravenna,1107,1200,2023,1,696,50,Active,,,https://www.redfin.com/WA/Seattle/2216-NE-75th-St-98115/home/309035,NWMLS,2027649,N,Y,47.6832264,-122.3032044
MLS Listing,,Single Family Residential,7507 23rd Ave NE,Seattle,WA,98115,799950,2,1.5,Ravenna,1087,1200,2023,1,736,50,Active,,,https://www.redfin.com/WA/Seattle/7507-23rd-Ave-NE-98115/home/183841150,NWMLS,2027650,N,Y,47.6832611,-122.3031955
MLS Listing,,Single Family Residential,3624 NE 65th St,Seattle,WA,98115,759000,2,2.0,Bryant,1181,1307,2022,1,643,50,Active,,,https://www.redfin.com/WA/Seattle/3624-NE-65th-St-98115/home/315393,NWMLS,2028581,N,Y,47.6759639,-122.2878416
MLS Listing,,Single Family Residential,1134 N 91st St Unit B,Seattle,WA,98103,499950,2,1.5,Licton Springs,680,1059,2005,1,735,,Active,January-21-2023 12:00 PM,January-21-2023 02:00 PM,https://www.redfin.com/WA/Seattle/1134-N-91st-St-98103/unit-B/home/2090807,NWMLS,2026241,N,Y,47.6951577,-122.3428912
MLS Listing,,Townhouse,6209 9th Ave NE Unit A,Seattle,WA,98115,875000,3,2.5,Roosevelt,1450,1081,2015,1,603,,Active,January-21-2023 01:00 PM,January-21-2023 03:00 PM,https://www.redfin.com/WA/Seattle/6209-9th-Ave-NE-98115/unit-A/home/106203758,NWMLS,2028376,N,Y,47.6737235,-122.3189811
MLS Listing,,Single Family Residential,619 Lafayette St S,Tacoma,WA,98444,380000,3,2.5,Tacoma,1209,2500,1998,1,314,,Active,,,https://www.redfin.com/WA/Tacoma/619-Lafayette-St-S-98444/home/2947839,NWMLS,2027293,N,Y,47.1549729,-122.4405375
MLS Listing,,Single Family Residential,2026 E 35th St,Tacoma,WA,98404,635000,5,3.0,East Tacoma,2365,6500,2022,1,268,,Active,,,https://www.redfin.com/WA/Tacoma/2026-E-35th-St-98404/home/2845839,NWMLS,2027994,N,Y,47.2323345,-122.4013557
MLS Listing,,Single Family Residential,3820 158th Street Ct E,Tacoma,WA,98446,390000,3,2.5,Frederickson,1795,12000,1982,1,217,,Active,,,https://www.redfin.com/WA/Tacoma/3820-158th-St-Ct-E-98446/home/2734522,NWMLS,2028542,N,Y,47.1125379,-122.3778044
MLS Listing,,Condo/Co-op,500 5th Ave W #502,Seattle,WA,98119,419900,1,1.0,Queen Anne,649,,1968,1,647,445,Active,January-21-2023 10:00 AM,January-21-2023 01:00 PM,https://www.redfin.com/WA/Seattle/500-5th-Ave-W-98119/unit-502/home/12537471,NWMLS,2027533,N,Y,47.6235501,-122.3628689
MLS Listing,,Single Family Residential,2423 3rd Ave W,Seattle,WA,98119,799950,3,2.0,Queen Anne,1170,4800,1907,1,684,7,Active,January-21-2023 02:00 PM,January-21-2023 04:00 PM,https://www.redfin.com/WA/Seattle/2423-3rd-Ave-W-98119/home/130871,NWMLS,2024898,N,Y,47.640307,-122.3614822
MLS Listing,,Single Family Residential,11011 19th Ave SW,Seattle,WA,98146,749999,4,1.5,White Center,2840,8382,1962,1,264,,Active,January-21-2023 11:00 AM,January-21-2023 02:00 PM,https://www.redfin.com/WA/Seattle/11011-19th-Ave-SW-98146/home/179602,NWMLS,2027857,N,Y,47.5046033,-122.3593961
MLS Listing,,Single Family Residential,8336 Mary Ave NW,Seattle,WA,98117,799999,3,2.0,Whittier,2160,4228,1928,1,370,,Active,January-21-2023 12:00 PM,January-21-2023 03:00 PM,https://www.redfin.com/WA/Seattle/8336-Mary-Ave-NW-98117/home/497481,NWMLS,2028107,N,Y,47.6897449,-122.3751665
MLS Listing,,Single Family Residential,8829 S Yakima Ave,Tacoma,WA,98444,599950,4,3.5,Tacoma,1976,8908,2023,1,304,,Active,January-21-2023 10:00 AM,January-21-2023 12:00 PM,https://www.redfin.com/WA/Tacoma/8829-S-Yakima-Ave-98444/home/2616332,NWMLS,2028099,N,Y,47.1763481,-122.4427569
MLS Listing,,Single Family Residential,11922 24th Ave E,Tacoma,WA,98445,495000,4,2.0,Midland,1420,15321,1960,1,349,,Active,,,https://www.redfin.com/WA/Tacoma/11922-24th-Ave-E-98445/home/2563374,NWMLS,2027883,N,Y,47.1478932,-122.3973274
MLS Listing,,Single Family Residential,2511 E Union St,Seattle,WA,98122,995000,3,2.0,Central Area,1690,2344,2022,1,589,,Active,,,https://www.redfin.com/WA/Seattle/2511-E-Union-St-98122/home/22519799,NWMLS,2028231,N,Y,47.6125407,-122.2995329
MLS Listing,,Condo/Co-op,76 Cedar St Ph 1,Seattle,WA,98121,549900,1,1.0,Belltown,615,,2008,1,894,662,Active,,,https://www.redfin.com/WA/Seattle/76-Cedar-St-98121/unit-01/home/12537366,NWMLS,2027923,N,Y,47.6154195,-122.3515839
MLS Listing,,Condo/Co-op,2510 6th Ave #1910,Seattle,WA,98121,873000,1,1.0,Denny Triangle,985,,2021,1,886,930,Active,,,https://www.redfin.com/WA/Seattle/2510-6th-Ave-98121/unit-1910/home/183825995,NWMLS,2028350,N,Y,47.6182832,-122.344644
MLS Listing,,Single Family Residential,420 S 60th St,Tacoma,WA,98408,377900,3,1.0,Tacoma,1032,6000,1943,1,366,,Active,,,https://www.redfin.com/WA/Tacoma/420-S-60th-St-98408/home/2944311,NWMLS,2027961,N,Y,47.2024066,-122.4375438
MLS Listing,,Single Family Residential,3014 S walden St,Seattle,WA,98144,825000,4,2.5,Mt Baker,1600,3600,1999,1,516,,Active,,,https://www.redfin.com/WA/Seattle/3014-S-Walden-St-98144/home/171147,NWMLS,2027972,N,Y,47.573337,-122.2934916
MLS Listing,,Condo/Co-op,2911 2nd Ave #1007,Seattle,WA,98121,698500,1,1.0,Belltown,883,,2009,1,791,803,Active,January-21-2023 12:00 AM,January-21-2023 02:00 PM,https://www.redfin.com/WA/Seattle/2911-2nd-Ave-98121/unit-1007/home/21616566,NWMLS,2027618,N,Y,47.6176125,-122.3523057
PAST SALE,,Townhouse,3930 B6 S Pearl St,Seattle,WA,98118,824900,2,2.0,Columbia City,1394,880,2023,1,592,,Pending,,,https://www.redfin.com/WA/Seattle/3930-B6-S-Pearl-St-98118/home/179609560,NWMLS,1938491,N,Y,47.556347,-122.281837
PAST SALE,,Single Family Residential,6134 S D St,Tacoma,WA,98408,399950,3,1.0,South Tacoma,1936,9000,1928,1,207,,Pending,,,https://www.redfin.com/WA/Tacoma/6134-S-D-St-98408/home/2744463,NWMLS,2027717,N,Y,47.2006575,-122.436835
PAST SALE,September-21-2012,Single Family Residential,4243 S Mead St,Seattle,WA,98118,649900,2,2.0,Hillman City,1000,3090,1912,1,650,,Pending,,,https://www.redfin.com/WA/Seattle/4243-S-Mead-St-98118/home/173137,NWMLS,2026926,N,Y,47.5502044,-122.2789222
PAST SALE,,Townhouse,13250 65th Ave S Unit D20,Seattle,WA,98178,599800,3,2.5,Bryn Mawr,1750,1658,2021,1,343,180,Pending,,,https://www.redfin.com/WA/Seattle/13250-65th-Ave-S-98178/unit-D20/home/175264621,NWMLS,1785710,N,Y,47.4855317,-122.2531252
PAST SALE,,Single Family Residential,9516 15th Ave NE,Seattle,WA,98115,549950,5,3.0,Maple Leaf,1950,6934,1947,1,282,,Pending,,,https://www.redfin.com/WA/Seattle/9516-15th-Ave-NE-98115/home/107065,NWMLS,2022351,N,Y,47.6981483,-122.3117559
PAST SALE,July-20-2021,Condo/Co-op,108 5th Ave S #514,Seattle,WA,98104,283999,0,1.0,International District,444,,2001,1,640,299,Pending,,,https://www.redfin.com/WA/Seattle/108-5th-Ave-S-98104/unit-514/home/12090802,NWMLS,2026393,N,Y,47.6013297,-122.3272284
PAST SALE,December-19-2022,Townhouse,3410 A 23rd Ave W,Seattle,WA,98199,799950,2,2.0,Magnolia,1395,1102,2022,1,573,,Pending,,,https://www.redfin.com/WA/Seattle/3410-23rd-Ave-W-98199/home/179736059,NWMLS,1967864,N,Y,47.6507636,-122.3856057
PAST SALE,March-30-2007,Single Family Residential,7356 27th Ave NW,Seattle,WA,98117,980000,3,3.0,Sunset Hill,1970,4212,1928,1,497,,Pending,,,https://www.redfin.com/WA/Seattle/7356-27th-Ave-NW-98117/home/165906,NWMLS,2026308,N,Y,47.6829993,-122.390588
PAST SALE,,Townhouse,2711 E Yesler Way Unit A,Seattle,WA,98122,649900,2,2.0,Leschi,1109,1,2021,1,586,,Pending,,,https://www.redfin.com/WA/Seattle/2711-E-Yesler-Way-98122/unit-A/home/177302469,NWMLS,1865931,N,Y,47.6014007,-122.2972963
PAST SALE,August-27-2019,Single Family Residential,1729 116th St S,Tacoma,WA,98444,200000,3,2.0,Parkland,1386,10000,1962,1,144,,Pending,,,https://www.redfin.com/WA/Tacoma/1729-116th-St-S-98444/home/2987028,NWMLS,1996934,N,Y,47.1515757,-122.4596764
PAST SALE,December-4-2020,Single Family Residential,118 Eldorado Ave,Fircrest,WA,98466,600000,3,2.0,Fircrest,3302,13750,1942,1,182,,Pending,,,https://www.redfin.com/WA/Fircrest/118-Eldorado-Ave-98466/home/2957257,NWMLS,2021296,N,Y,47.2421379,-122.5109365
PAST SALE,July-13-2017,Single Family Residential,14062 23rd Pl NE,Seattle,WA,98125,735000,3,2.0,Olympic Hills,1460,6715,1944,1,503,,Pending,,,https://www.redfin.com/WA/Seattle/14062-23rd-Pl-NE-98125/home/115952,NWMLS,2025489,N,Y,47.7315159,-122.304149
PAST SALE,June-20-2019,Townhouse,1546 17th Ave S #3,Seattle,WA,98144,458000,2,2.5,N Beacon Hill,1144,6000,1999,1,400,300,Pending,,,https://www.redfin.com/WA/Seattle/1546-17th-Ave-S-98144/unit-3/home/22728,NWMLS,2027442,N,Y,47.5886873,-122.3102433
PAST SALE,August-23-2000,Single Family Residential,3018 S Proctor St,Tacoma,WA,98409,269000,3,1.0,Tacoma,908,5000,1926,1,296,,Pending,,,https://www.redfin.com/WA/Tacoma/3018-S-Proctor-St-98409/home/2940483,NWMLS,2026621,N,Y,47.232486,-122.488808
PAST SALE,,Townhouse,9427 18th Ave SW,Seattle,WA,98106,575000,3,2.0,Westwood,1080,4720,2023,1,532,,Pending,,,https://www.redfin.com/WA/Seattle/9427-18th-Ave-SW-98106/home/183631501,NWMLS,2027143,N,Y,47.5183968,-122.3581788
PAST SALE,,Single Family Residential,8620 31st Ave SW Unit A,Seattle,WA,98126,785000,3,2.0,Westwood,1722,5383,1952,1,456,2,Pending,,,https://www.redfin.com/WA/Seattle/8620-31st-Ave-SW-98126/unit-A/home/183179738,NWMLS,2019269,N,Y,47.5258045,-122.3722707
PAST SALE,,Condo/Co-op,600 Wall St #1005,Seattle,WA,98121,658950,1,1.0,Belltown,596,,2020,1,1106,576,Pending,,,https://www.redfin.com/WA/Seattle/600-Wall-St-98109/unit-1005/home/148369724,NWMLS,1387408,N,Y,47.6183385,-122.344502
PAST SALE,,Townhouse,9429 18th Ave SW Unit B,Seattle,WA,98106,575000,3,2.0,Westwood,1080,4720,2023,1,532,,Pending,,,https://www.redfin.com/WA/Seattle/9429-18th-Ave-SW-98106/unit-B/home/183739760,NWMLS,2026815,N,Y,47.5183914,-122.3582676
PAST SALE,June-13-2017,Townhouse,8431 22nd Ave SW,Seattle,WA,98106,665000,3,2.5,West Seattle,1546,1600,2022,1,430,,Pending,,,https://www.redfin.com/WA/Seattle/8431-22nd-Ave-SW-98106/home/181778770,NWMLS,2027987,N,Y,47.5272813,-122.3621472
PAST SALE,April-25-2012,Single Family Residential,6303 37th Ave SW,Seattle,WA,98126,650000,2,1.0,Fairmount,780,6738,1943,1,833,,Pending,,,https://www.redfin.com/WA/Seattle/6303-37th-Ave-SW-98126/home/471690,NWMLS,2025522,N,Y,47.5464032,-122.3794037
PAST SALE,,Single Family Residential,8620 31st Ave SW Unit B,Seattle,WA,98126,525000,2,1.0,Westwood,792,2190,2022,1,663,2,Pending,,,https://www.redfin.com/WA/Seattle/8620-31st-Ave-SW-98126/unit-B/home/183053326,NWMLS,2019280,N,Y,47.5258045,-122.3722707
PAST SALE,,Single Family Residential,7152 44th Ave S,Seattle,WA,98118,830500,3,3.0,Brighton,1731,1683,2022,1,480,,Pending,,,https://www.redfin.com/WA/Seattle/7152-44th-Ave-S-98118/home/182598452,NWMLS,2013152,N,Y,47.5375729,-122.278027
MLS Listing,,Single Family Residential,1616 135th St E,Tacoma,WA,98445,435000,3,2.0,Brookdale,1502,6817,1995,1,290,300,Active,January-22-2023 01:00 PM,January-22-2023 04:00 PM,https://www.redfin.com/WA/Tacoma/1616-135th-St-E-98445/home/2982015,NWMLS,2028244,N,Y,47.134153,-122.409033
MLS Listing,,Single Family Residential,16117 29th Ave Ct E,Tacoma,WA,98445,585000,5,3.0,Brookdale,2390,19211,2002,1,245,38,Active,January-21-2023 11:00 AM,January-21-2023 02:00 PM,https://www.redfin.com/WA/Tacoma/16117-29th-Ave-Ct-E-98445/home/3006614,NWMLS,2028170,N,Y,47.1107924,-122.3897811
MLS Listing,,Townhouse,133 Maple St,Fircrest,WA,98466,518500,3,2.5,Fircrest,1587,1608,2005,2,327,125,Active,,,https://www.redfin.com/WA/Fircrest/133-Maple-St-98466/home/3031907,NWMLS,2028121,N,Y,47.2187108,-122.5064236
MLS Listing,,Single Family Residential,10123 24th Ave E,Tacoma,WA,98445,265000,2,1.0,Midland,1512,24829,1939,2,175,,Active,,,https://www.redfin.com/WA/Tacoma/10123-24th-Ave-E-98445/home/2552867,NWMLS,2027663,N,Y,47.1642969,-122.3963265
MLS Listing,,Condo/Co-op,450 S Main St #1704,Seattle,WA,98104,699950,2,1.0,International District,856,,2021,2,818,710,Active,January-21-2023 02:00 PM,January-21-2023 04:00 PM,https://www.redfin.com/WA/Seattle/450-S-Main-St-98104/unit-1704/home/176359042,NWMLS,2028091,N,Y,47.6002447,-122.3280012
MLS Listing,,Condo/Co-op,450 S Main St #1308,Seattle,WA,98104,659950,2,1.0,International District,856,,2021,2,771,710,Active,January-21-2023 02:00 PM,January-21-2023 04:00 PM,https://www.redfin.com/WA/Seattle/450-S-Main-St-98104/unit-1308/home/176359008,NWMLS,2028086,N,Y,47.6002447,-122.3280012
MLS Listing,,Condo/Co-op,450 S Main St #912,Seattle,WA,98104,999950,2,2.0,International District,1115,,2021,2,897,930,Active,January-21-2023 02:00 PM,January-21-2023 04:00 PM,https://www.redfin.com/WA/Seattle/450-S-Main-St-98104/unit-912/home/176358964,NWMLS,2028082,N,Y,47.6002447,-122.3280012
MLS Listing,,Condo/Co-op,450 S Main St #605,Seattle,WA,98104,399950,1,1.0,International District,558,,2021,2,717,465,Active,January-21-2023 02:00 PM,January-21-2023 04:00 PM,https://www.redfin.com/WA/Seattle/450-S-Main-St-98104/unit-605/home/176358916,NWMLS,2028078,N,Y,47.6002447,-122.3280012
MLS Listing,,Condo/Co-op,450 S Main St #502,Seattle,WA,98104,519950,2,1.0,International District,848,,2021,2,613,709,Active,January-21-2023 02:00 PM,January-21-2023 04:00 PM,https://www.redfin.com/WA/Seattle/450-S-Main-St-98104/unit-502/home/176358896,NWMLS,2028030,N,Y,47.6002447,-122.3280012
MLS Listing,,Townhouse,4523 40th Ave SW Unit B,Seattle,WA,98116,750000,3,3.0,Alaska Junction,1560,1387,2003,2,481,,Active,,,https://www.redfin.com/WA/Seattle/4523-40th-Ave-SW-98116/unit-B/home/329511,NWMLS,2027931,N,Y,47.5621726,-122.3831074
MLS Listing,,Townhouse,8050 16th Ave NW Unit A,Seattle,WA,98117,849950,3,2.0,Crown Hill,1408,970,2022,2,604,,Active,January-21-2023 12:00 PM,January-21-2023 02:00 PM,https://www.redfin.com/WA/Seattle/8050-16th-Ave-NW-98117/unit-A/home/183816655,NWMLS,2012306,N,Y,47.6882411,-122.3774852
